stop_id,stop_code,stop_name,stop_desc,stop_lat,stop_lon,zone_id,stop_url,location_type,parent_station,stop_timezone,wheelchair_boarding,platform_code
1_7601,,AEROPORTO,,38.76782608,-9.1287117004,,,0,,,0,
1_7602,,AEROPORTO,,38.76896286,-9.1279783249,,,0,,,0,
1_12901,,AJUDA,,38.709133148,-9.1999864578,,,0,,,0,
1_12902,,AJUDA,,38.709407806,-9.1999330521,,,0,,,0,
1_12919,,AJUDA - RUA DAS AÇUCENAS,,38.70880127,-9.2000207901,,,0,,,0,
1_12920,,AJUDA - RUA DAS AÇUCENAS,,38.708930969,-9.2002477646,,,0,,,0,
1_8308,,AL. BEATO,,38.732753754,-9.1059236526,,,0,,,0,
1_402,,ALAMEDA D. A. HENRIQUES,,38.736942291,-9.1339941025,,,0,,,0,
1_408,,ALAMEDA D. A. HENRIQUES,,38.736019135,-9.1340770721,,,0,,,0,
1_409,,ALAMEDA D. A. HENRIQUES,,38.736099243,-9.1338701248,,,0,,,0,
1_410,,ALAMEDA D. A. HENRIQUES,,38.737182617,-9.1339931488,,,0,,,0,
1_413,,ALAMEDA D. A. HENRIQUES,,38.736946106,-9.1337203979,,,0,,,0,
1_414,,ALAMEDA D. A. HENRIQUES,,38.737297058,-9.1336727142,,,0,,,0,
1_401,,ALAMEDA D. A. HENRIQUES,,38.736503601,-9.1311368942,,,0,,,0,
1_11112,,ALAMEDA D. A. HENRIQUES,,38.736923218,-9.1363487244,,,0,,,0,
1_11111,,ALAMEDA D. AFONSO HENIRIQUES,,38.736751556,-9.1363286972,,,0,,,0,
1_8307,,ALAMEDA DO BEATO,,38.733097076,-9.1055402756,,,0,,,0,
1_14305,,ALAMEDA FERNÃO LOPES - ESTAÇÃO,,38.714637756,-9.2292251587,,,0,,,0,
1_14306,,ALAMEDA FERNÃO LOPES - ESTAÇÃO,,38.715003967,-9.2294368744,,,0,,,0,
1_12927,,ALAMEDA UNIVERSIDADE TÉCNICA,,38.713588715,-9.2004928589,,,0,,,0,
1_9401,,ALCÂNTARA,,38.706573486,-9.1734848022,,,0,,,0,
1_9402,,ALCÂNTARA,,38.706634521,-9.1732950211,,,0,,,0,
1_9417,,ALCÂNTARA,,38.70627594,-9.1733846664,,,0,,,0,
1_9418,,ALCÂNTARA,,38.705883026,-9.1727104187,,,0,,,0,
1_9414,,ALCÂNTARA,,38.706882477,-9.1731452942,,,0,,,0,
1_4001,,ALCÂNTARA - AV. 24 DE JULHO,,38.704143524,-9.1738233566,,,0,,,0,
1_4004,,ALCÂNTARA - AV. 24 DE JULHO,,38.704303741,-9.173951149,,,0,,,0,
1_9415,,ALCÂNTARA - AV. DE CEUTA,,38.707256317,-9.173535347,,,0,,,0,
1_9425,,ALCÂNTARA - AV. DE CEUTA,,38.708099365,-9.1737365723,,,0,,,0,
1_12117,,ALCÂNTARA - CÇ. DA TAPADA,,38.707244873,-9.1789340973,,,0,,,0,
1_12118,,ALCÂNTARA - CÇ. DA TAPADA,,38.706581116,-9.1788368225,,,0,,,0,
1_4005,,ALCÂNTARA MAR,,38.70350647,-9.1747159958,,,0,,,0,
1_4002,,ALCÂNTARA MAR,,38.702945709,-9.1734189987,,,0,,,0,
1_4003,,ALCÂNTARA MAR,,38.702865601,-9.1732378006,,,0,,,0,
1_4009,,ALCÂNTARA MAR,,38.705177307,-9.1743202209,,,0,,,0,
1_8201,,ALFÂNDEGA (TERMINAL CRUZEIROS),,38.710502625,-9.1274318695,,,0,,,0,
1_8202,,ALFÂNDEGA (TERMINAL CRUZEIROS),,38.709575653,-9.129029274,,,0,,,0,
1_8841,,ALFRAGIDE,,38.738113403,-9.2128324509,,,0,,,0,
1_88102,,ALFRAGIDE - DGA,,38.737674713,-9.208032608,,,0,,,0,
1_88104,,ALFRAGIDE - DGA,,38.737705231,-9.2083444595,,,0,,,0,
1_18109,,ALFRAGIDE - FAP,,38.738513947,-9.2139482498,,,0,,,0,
1_18112,,ALFRAGIDE - FAP,,38.738704681,-9.2142467499,,,0,,,0,
1_18110,,ALFRAGIDE - NATO,,38.736522675,-9.2163829803,,,0,,,0,
1_18107,,ALFRAGIDE - NATO,,38.73664856,-9.2158546448,,,0,,,0,
1_18134,,ALFRAGIDE - NATO,,38.737205505,-9.2161026001,,,0,,,0,
1_18128,,ALFRAGIDE NORTE,,38.739459991,-9.2215099335,,,0,,,0,
1_18101,,ALFRAGIDE SUL,,38.733318329,-9.2171325684,,,0,,,0,
1_18116,,ALFRAGIDE SUL,,38.732891083,-9.2169618607,,,0,,,0,
1_4201,,ALGÉS,,38.698566437,-9.2272405624,,,0,,,0,
1_4206,,ALGÉS,,38.698768616,-9.227478981,,,0,,,0,
1_4207,,ALGÉS,,38.699207306,-9.2269487381,,,0,,,0,
1_4210,,ALGÉS,,38.698493958,-9.2275934219,,,0,,,0,
1_4211,,ALGÉS,,38.698940277,-9.2270097733,,,0,,,0,
1_4215,,ALGÉS,,38.699256897,-9.2314605713,,,0,,,0,
1_4220,,ALGÉS,,38.699501038,-9.2277994156,,,0,,,0,
1_4213,,ALGÉS - MERCADO,,38.701126099,-9.2280101776,,,0,,,0,
1_4202,,ALGÉS - MERCADO,,38.701499939,-9.2273511887,,,0,,,0,
1_4218,,ALGÉS - PÇ. D. MANUEL I,,38.699497223,-9.2284927368,,,0,,,0,
1_4219,,ALGÉS - PÇ. D. MANUEL I,,38.699401855,-9.2285709381,,,0,,,0,
1_4223,,ALGÉS (JARDIM),,38.699417114,-9.2320966721,,,0,,,0,
1_4212,,ALGÉS (JARDIM),,38.699546814,-9.2320995331,,,0,,,0,
1_11503,,ALTA DE LISBOA - QTA CONCHAS,,38.769863129,-9.1485509872,,,0,,,0,
1_11504,,ALTA DE LISBOA - QTA CONCHAS,,38.768802643,-9.1490678787,,,0,,,0,
1_4114,,ALTINHO (MAAT),,38.697505951,-9.1960115433,,,0,,,0,
1_4115,,ALTINHO (MAAT),,38.697368622,-9.1941680908,,,0,,,0,
1_3021,,ALTO DA DAMAIA,,38.743515015,-9.2174482346,,,0,,,0,
1_12001,,ALTO DE SANTO AMARO,,38.702358246,-9.1879873276,,,0,,,0,
1_12007,,ALTO DE SANTO AMARO,,38.704933167,-9.1874217987,,,0,,,0,
1_7221,,ALTO DO CHAPELEIRO,,38.78767395,-9.1635866165,,,0,,,0,
1_5838,,ALTO DO LUMIAR - PARQUE EUROPA,,38.766452789,-9.1527471542,,,0,,,0,
1_8844,,ALTO DO ZAMBUJAL,,38.736335754,-9.212600708,,,0,,,0,
1_8845,,ALTO DO ZAMBUJAL,,38.736465454,-9.2127628326,,,0,,,0,
1_21301,,ALTO DOS MOíNHOS,,38.721733093,-9.1971130371,,,0,,,0,
1_21302,,ALTO DOS MOíNHOS,,38.722080231,-9.1967830658,,,0,,,0,
1_10710,,ALTO DOS MOÍNHOS METRO,,38.749256134,-9.1801013947,,,0,,,0,
1_50029,,ALTO FAIA,,38.767650604,-9.1685810089,,,0,,,0,
1_50030,,ALTO FAIA,,38.76815033,-9.1680707932,,,0,,,0,
1_50023,,ALTO FAIA SUL,,38.765220642,-9.171667099,,,0,,,0,
1_50024,,ALTO FAIA SUL,,38.76524353,-9.1718072891,,,0,,,0,
1_10709,,ALTO MOINHOS (METRO),,38.749355316,-9.1802368164,,,0,,,0,
1_9001,,ALTO PINA,,38.737560272,-9.1277284622,,,0,,,0,
1_9002,,ALTO PINA,,38.737506866,-9.1274518967,,,0,,,0,
1_12010,,ALTO STO. AMARO,,38.702560425,-9.1879320145,,,0,,,0,
1_12006,,ALTO STO. AMARO,,38.705112457,-9.1876554489,,,0,,,0,
1_12009,,ALTO STO. AMARO,,38.70255661,-9.1879320145,,,0,,,0,
1_5926,,AMEIXOEIRA,,38.78187561,-9.1586647034,,,0,,,0,
1_5931,,AMEIXOEIRA,,38.782077789,-9.158747673,,,0,,,0,
1_5911,,AMEIXOEIRA - ESTR. DESVIO,,38.778831482,-9.163392067,,,0,,,0,
1_5927,,AMEIXOEIRA (METRO),,38.779499054,-9.159450531,,,0,,,0,
1_5922,,AMEIXOEIRA (METRO),,38.779624939,-9.1597919464,,,0,,,0,
1_89909,,AMENDOEIRAS (METRO),,38.754619598,-9.1137113571,,,0,,,0,
1_8501,,AMOREIRAS,,38.724376678,-9.1609039307,,,0,,,0,
1_8502,,AMOREIRAS,,38.724090576,-9.1607236862,,,0,,,0,
1_8510,,AMOREIRAS,,38.723991394,-9.1597833633,,,0,,,0,
1_8511,,AMOREIRAS,,38.723865509,-9.1605796814,,,0,,,0,
1_8512,,AMOREIRAS,,38.723823547,-9.1609182358,,,0,,,0,
1_8517,,AMOREIRAS,,38.72321701,-9.1601209641,,,0,,,0,
1_8520,,AMOREIRAS (C. COMERCIAL),,38.7227211,-9.1611175537,,,0,,,0,
1_8518,,AMOREIRAS (C. COMERCIAL),,38.723716736,-9.1607084274,,,0,,,0,
1_14907,,AQUÁRIO VASCO GAMA,,38.699184418,-9.2374897003,,,0,,,0,
1_14908,,AQUÁRIO VASCO GAMA,,38.699268341,-9.2375164032,,,0,,,0,
1_8609,,ARCO CARVALHÃO,,38.724205017,-9.165266037,,,0,,,0,
1_8610,,ARCO CARVALHÃO,,38.724021912,-9.1653766632,,,0,,,0,
1_11101,,ARCO CEGO,,38.735111237,-9.1424255371,,,0,,,0,
1_11102,,ARCO CEGO,,38.734889984,-9.1414718628,,,0,,,0,
1_11105,,ARCO CEGO,,38.734584808,-9.1415777206,,,0,,,0,
1_11118,,ARCO CEGO - AV.MIGUEL BOMBARD,,38.737693787,-9.1428337097,,,0,,,0,
1_302,,AREEIRO,,38.742141724,-9.1344537735,,,0,,,0,
1_319,,AREEIRO,,38.742370605,-9.134478569,,,0,,,0,
1_309,,AREEIRO,,38.742370605,-9.1345081329,,,0,,,0,
1_318,,AREEIRO - AV. AFONSO COSTA,,38.74187851,-9.131816864,,,0,,,0,
1_312,,AREEIRO - AV. AFONSO COSTA,,38.741886139,-9.1319437027,,,0,,,0,
1_301,,AREEIRO - AV. AFONSO COSTA,,38.742290497,-9.1319046021,,,0,,,0,
1_311,,AREEIRO - AV. ALM. GAGO COUTIN,,38.743293762,-9.1324977875,,,0,,,0,
1_308,,AREEIRO - AV. ALM. GAGO COUTIN,,38.743293762,-9.1328325272,,,0,,,0,
1_317,,AREEIRO - AV. ALM. GAGO COUTIN,,38.743412018,-9.1324157715,,,0,,,0,
1_9009,,AREEIRO - CASAL VISTOSO,,38.741348267,-9.1281776428,,,0,,,0,
1_6701,,ASSEMBLEIA DA REPÚBLICA,,38.711006165,-9.1535053253,,,0,,,0,
1_6702,,ASSEMBLEIA DA REPÚBLICA,,38.711181641,-9.1537094116,,,0,,,0,
1_11703,,AV. AFONSO III,,38.727703094,-9.1196479797,,,0,,,0,
1_11704,,AV. AFONSO III,,38.727485657,-9.1196088791,,,0,,,0,
1_7305,,AV. ALM. GAGO COUTINHO,,38.749599457,-9.1307497025,,,0,,,0,
1_7401,,AV. ALM. GAGO COUTINHO,,38.755088806,-9.1302051544,,,0,,,0,
1_7413,,AV. ALM. GAGO COUTINHO,,38.753795624,-9.1306171417,,,0,,,0,
1_313,,AV. ALM. GAGO COUTINHO,,38.745693207,-9.1311283112,,,0,,,0,
1_310,,AV. ALM. GAGO COUTINHO,,38.745197296,-9.1315469742,,,0,,,0,
1_7308,,AV. ALM. GAGO COUTINHO / AV. E,,38.747993469,-9.1311922073,,,0,,,0,
1_18132,,AV. ALMEIDA GARRET,,38.738365173,-9.2177658081,,,0,,,0,
1_18133,,AV. ALMEIDA GARRET,,38.738262177,-9.2179393768,,,0,,,0,
1_604,,AV. ALMIRANTE REIS / R. ANGOLA,,38.726013184,-9.1343269348,,,0,,,0,
1_607,,AV. ALMIRANTE REIS / R. ANGOLA,,38.725574493,-9.1349315643,,,0,,,0,
1_608,,AV. ALMIRANTE REIS / R. ANGOLA,,38.725578308,-9.1350917816,,,0,,,0,
1_605,,AV. ALMIRANTE REIS / R. FEBO M,,38.726421356,-9.1355733871,,,0,,,0,
1_609,,AV. ALMIRANTE REIS / R. MARQUE,,38.729076385,-9.1345672607,,,0,,,0,
1_610,,AV. ALMIRANTE REIS / R. MARQUE,,38.728782654,-9.1347837448,,,0,,,0,
1_6801,,AV. ÁLVARES CABRAL,,38.717483521,-9.1573286057,,,0,,,0,
1_6802,,AV. ÁLVARES CABRAL,,38.718338013,-9.1569461823,,,0,,,0,
1_6803,,AV. ÁLVARES CABRAL,,38.717689514,-9.157169342,,,0,,,0,
1_3311,,AV. ÁLVARO PAIS,,38.745334625,-9.1524171829,,,0,,,0,
1_1301,,AV. ANTÓNIO AUGUSTO AGUIAR,,38.729129791,-9.1493206024,,,0,,,0,
1_1302,,AV. ANTÓNIO AUGUSTO AGUIAR,,38.728984833,-9.1495704651,,,0,,,0,
1_11109,,AV. ANTÓNIO JOSÉ DE ALMEIDA,,38.738220215,-9.1399421692,,,0,,,0,
1_14729,,AV. AVELINO TEIXEIRA MOTA (CER,,38.752086639,-9.1213111877,,,0,,,0,
1_14730,,AV. AVELINO TEIXEIRA MOTA (CER,,38.752117157,-9.1208553314,,,0,,,0,
1_7728,,AV. BERLIM (PÇ. BADEN POWELL),,38.768108368,-9.1090650558,,,0,,,0,
1_18401,,AV. BOMBEIROS DE ALGÉS,,38.707698822,-9.2257232666,,,0,,,0,
1_18402,,AV. BOMBEIROS DE ALGÉS,,38.707336426,-9.2255964279,,,0,,,0,
1_18403,,AV. BOMBEIROS DE ALGÉS-CINEMA,,38.705726624,-9.2268238068,,,0,,,0,
1_18404,,AV. BOMBEIROS DE ALGÉS-CINEMA,,38.705295563,-9.2267560959,,,0,,,0,
1_7605,,AV. C DO AEROPORTO,,38.774124146,-9.125878334,,,0,,,0,
1_7606,,AV. C DO AEROPORTO,,38.774513245,-9.1261510849,,,0,,,0,
1_11507,,AV. CARLOS PAREDES,,38.774242401,-9.1521806717,,,0,,,0,
1_11510,,AV. CARLOS PAREDES,,38.774410248,-9.1517467499,,,0,,,0,
1_3613,,AV. CARLOS PINHÃO,,38.741535187,-9.1186218262,,,0,,,0,
1_3614,,AV. CARLOS PINHÃO,,38.742355347,-9.117857933,,,0,,,0,
1_9428,,AV. CEUTA,,38.7072258,-9.1741609573,,,0,,,0,
1_9429,,AV. CEUTA,,38.707252502,-9.1741609573,,,0,,,0,
1_7701,,AV. CIDADE LOURENÇO MARQUES,,38.767406464,-9.1193180084,,,0,,,0,
1_7702,,AV. CIDADE LOURENÇO MARQUES,,38.766902924,-9.1198883057,,,0,,,0,
1_7731,,AV. CIDADE LOURENÇO MARQUES,,38.768161774,-9.1197900772,,,0,,,0,
1_8401,,AV. CIDADE LOURENÇO MARQUES,,38.762672424,-9.119386673,,,0,,,0,
1_8402,,AV. CIDADE LOURENÇO MARQUES,,38.762622833,-9.1196584702,,,0,,,0,
1_12825,,AV. CIDADE PRAGA,,38.764652252,-9.1899824142,,,0,,,0,
1_12826,,AV. CIDADE PRAGA,,38.763896942,-9.1900577545,,,0,,,0,
1_12807,,AV. CIDADE PRAGA (LISPOLIS),,38.765472412,-9.1826457977,,,0,,,0,
1_12809,,AV. CIDADE PRAGA (LISPOLIS),,38.765663147,-9.1822900772,,,0,,,0,
1_12815,,AV. CIDADE PRAGA (LISPOLIS),,38.766384125,-9.1831817627,,,0,,,0,
1_12818,,AV. CIDADE PRAGA (LISPOLIS),,38.766468048,-9.1841897964,,,0,,,0,
1_7823,,AV. DA BOA ESPERANÇA,,38.774501801,-9.0970945358,,,0,,,0,
1_7824,,AV. DA BOA ESPERANÇA,,38.774375916,-9.0975322723,,,0,,,0,
1_1102,,AV. DA LIBERDADE,,38.720249176,-9.1457214355,,,0,,,0,
1_1103,,AV. DA LIBERDADE,,38.719741821,-9.1450147629,,,0,,,0,
1_79105,,AV. DA PEREGRINAÇÃO,,38.782180786,-9.0953912735,,,0,,,0,
1_79106,,AV. DA PEREGRINAÇÃO,,38.782218933,-9.095744133,,,0,,,0,
1_1809,,AV. DA REPÚBLICA,,38.738521576,-9.1458749771,,,0,,,0,
1_1810,,AV. DA REPÚBLICA,,38.73846817,-9.1461133957,,,0,,,0,
1_1805,,AV. DA REPÚBLICA,,38.73833847,-9.145822525,,,0,,,0,
1_1814,,AV. DA REPÚBLICA,,38.738265991,-9.1460590363,,,0,,,0,
1_2007,,AV. DAS FORÇAS ARMADAS,,38.74817276,-9.1500749588,,,0,,,0,
1_18120,,AV. DAS LARANJEIRAS,,38.737323761,-9.2211952209,,,0,,,0,
1_18121,,AV. DAS LARANJEIRAS,,38.737178802,-9.2213382721,,,0,,,0,
1_18124,,AV. DAS LARANJEIRAS,,38.737457275,-9.2236881256,,,0,,,0,
1_18125,,AV. DAS LARANJEIRAS,,38.737430573,-9.2238073349,,,0,,,0,
1_11516,,AV. DAVID MOURÃO FERREIRA,,38.777362823,-9.1523246765,,,0,,,0,
1_11517,,AV. DAVID MOURÃO FERREIRA,,38.777469635,-9.1520204544,,,0,,,0,
1_7719,,AV. DE BERLIM,,38.7669487,-9.1101732254,,,0,,,0,
1_7709,,AV. DE BERLIM,,38.768241882,-9.1111831665,,,0,,,0,
1_7710,,AV. DE BERLIM,,38.768383026,-9.1116123199,,,0,,,0,
1_7711,,AV. DE BERLIM,,38.767688751,-9.105840683,,,0,,,0,
1_7712,,AV. DE BERLIM,,38.767814636,-9.1060695648,,,0,,,0,
1_7715,,AV. DE BERLIM,,38.767444611,-9.1100387573,,,0,,,0,
1_7716,,AV. DE BERLIM,,38.767154694,-9.1102190018,,,0,,,0,
1_7603,,AV. DE BERLIM - AEROPORTO,,38.769828796,-9.1265964508,,,0,,,0,
1_7604,,AV. DE BERLIM - AEROPORTO,,38.770195007,-9.1273422241,,,0,,,0,
1_7703,,AV. DE BERLIM - VIVEIROS,,38.768917084,-9.1178455353,,,0,,,0,
1_7704,,AV. DE BERLIM - VIVEIROS,,38.76908493,-9.1173200607,,,0,,,0,
1_33101,,AV. DE BERNA - REGO,,38.739536285,-9.151722908,,,0,,,0,
1_33102,,AV. DE BERNA - REGO,,38.739810944,-9.1516561508,,,0,,,0,
1_11901,,AV. DE CEUTA - ARCO CARVALHÃO,,38.719371796,-9.1747903824,,,0,,,0,
1_11902,,AV. DE CEUTA - ARCO CARVALHÃO,,38.718669891,-9.1750469208,,,0,,,0,
1_8601,,AV. DE CEUTA - VIVEIROS,,38.723011017,-9.1747903824,,,0,,,0,
1_8602,,AV. DE CEUTA - VIVEIROS,,38.723468781,-9.1748981476,,,0,,,0,
1_2401,,AV. DO MEDITERRÂNEO,,38.76240921,-9.0984687805,,,0,,,0,
1_2402,,AV. DO MEDITERRÂNEO,,38.762504578,-9.0981082916,,,0,,,0,
1_9713,,AV. DO RESTELO,,38.699615479,-9.2136640549,,,0,,,0,
1_9714,,AV. DO RESTELO,,38.699829102,-9.2143268585,,,0,,,0,
1_11209,,AV. DO RIO DE JANEIRO,,38.749240875,-9.1382894516,,,0,,,0,
1_7821,,AV. DOM JOÃO II,,38.771556854,-9.0973463058,,,0,,,0,
1_7822,,AV. DOM JOÃO II,,38.771327972,-9.0977678299,,,0,,,0,
1_3012,,AV. DOM JOÃO V,,38.745483398,-9.2180662155,,,0,,,0,
1_3013,,AV. DOM JOÃO V,,38.745822906,-9.2175264359,,,0,,,0,
1_18104,,AV. DOM LUÍS I,,38.731437683,-9.2182607651,,,0,,,0,
1_9711,,AV. DOM VASCO DA GAMA,,38.701400757,-9.2167835236,,,0,,,0,
1_9712,,AV. DOM VASCO DA GAMA,,38.700965881,-9.2163381577,,,0,,,0,
1_18122,,AV. DOS MOÍNHOS,,38.736946106,-9.2225780487,,,0,,,0,
1_18123,,AV. DOS MOÍNHOS,,38.736804962,-9.2226772308,,,0,,,0,
1_12319,,AV. DOUTOR ALFREDO BENSAÚDE,,38.779232025,-9.1162633896,,,0,,,0,
1_12320,,AV. DOUTOR ALFREDO BENSAÚDE,,38.779064178,-9.1162939072,,,0,,,0,
1_14721,,AV. DOUTOR ARLINDO VICENTE,,38.75289917,-9.1262741089,,,0,,,0,
1_14722,,AV. DOUTOR ARLINDO VICENTE,,38.752792358,-9.1264457703,,,0,,,0,
1_12911,,AV. DOUTOR MÁRIO MOUTINHO,,38.711399078,-9.2085371017,,,0,,,0,
1_12912,,AV. DOUTOR MÁRIO MOUTINHO,,38.711528778,-9.208439827,,,0,,,0,
1_14723,,AV. DR. ARLINDO VICENTE,,38.753627777,-9.1259393692,,,0,,,0,
1_14724,,AV. DR. ARLINDO VICENTE,,38.753726959,-9.1260671616,,,0,,,0,
1_89905,,AV. DR. AUGUSTO CASTRO,,38.753726959,-9.1142320633,,,0,,,0,
1_3723,,AV. DR. AUGUSTO CASTRO / R. SA,,38.748775482,-9.1134872437,,,0,,,0,
1_6017,,AV. DR. JOSÉ SALVADO SAMPAIO,,38.780517578,-9.1530265808,,,0,,,0,
1_6021,,AV. DR. JOSÉ SALVADO SAMPAIO,,38.780288696,-9.1532211304,,,0,,,0,
1_12212,,AV. DR.ALFREDO BENSAÚDE,,38.779022217,-9.1173620224,,,0,,,0,
1_1806,,AV. DUQUE D'ÁVILA,,38.73500824,-9.1462879181,,,0,,,0,
1_6601,,AV. DUQUE DE LOULÉ,,38.727462769,-9.1457834244,,,0,,,0,
1_6602,,AV. DUQUE DE LOULÉ,,38.7277565,-9.1457920074,,,0,,,0,
1_7301,,AV. ESTADOS UNIDOS AMÉRICA,,38.748977661,-9.1328878403,,,0,,,0,
1_7302,,AV. ESTADOS UNIDOS AMÉRICA,,38.748641968,-9.1320486069,,,0,,,0,
1_11203,,AV. EUA / R. MOURA GIRÃO,,38.749130249,-9.1363267899,,,0,,,0,
1_2408,,AV. FERNANDO PESSOA,,38.758483887,-9.0971393585,,,0,,,0,
1_2405,,AV. FERNANDO PESSOA,,38.758548737,-9.0973024368,,,0,,,0,
1_1701,,AV. FONTES PEREIRA DE MELO,,38.728782654,-9.1477632523,,,0,,,0,
1_1702,,AV. FONTES PEREIRA DE MELO,,38.728610992,-9.1481456757,,,0,,,0,
1_2009,,AV. FORÇAS ARMADAS / R. SANCHE,,38.747737885,-9.1525774002,,,0,,,0,
1_2010,,AV. FORÇAS ARMADAS / R. SANCHE,,38.747650146,-9.1517753601,,,0,,,0,
1_11210,,AV. FREI MIGUEL CONTREIRAS,,38.746143341,-9.1364812851,,,0,,,0,
1_11211,,AV. FREI MIGUEL CONTREIRAS,,38.745803833,-9.1371202469,,,0,,,0,
1_9107,,AV. GENERAL ROÇADAS,,38.724903107,-9.1284618378,,,0,,,0,
1_9108,,AV. GENERAL ROÇADAS,,38.724884033,-9.1286211014,,,0,,,0,
1_407,,AV. GUERRA JUNQUEIRO,,38.737514496,-9.1347637177,,,0,,,0,
1_6125,,AV. GULBENKIAN,,38.732250214,-9.164513588,,,0,,,0,
1_6126,,AV. GULBENKIAN,,38.732257843,-9.1648788452,,,0,,,0,
1_12926,,AV. HELEN KELLER,,38.711673737,-9.2076807022,,,0,,,0,
1_11518,,AV. HELENA VIEIRA DA SILVA,,38.766880035,-9.1510353088,,,0,,,0,
1_11519,,AV. HELENA VIEIRA DA SILVA,,38.766868591,-9.1516828537,,,0,,,0,
1_13105,,AV. ILHA DA MADEIRA,,38.705215454,-9.207690239,,,0,,,0,
1_13106,,AV. ILHA DA MADEIRA,,38.70557785,-9.2076530457,,,0,,,0,
1_2320,,AV. INF. D. HENRIQUE (CENTIEIR,,38.759929657,-9.1036729813,,,0,,,0,
1_2311,,AV. INF. D. HENRIQUE (CENTIEIR,,38.759498596,-9.1033201218,,,0,,,0,
1_9810,,AV. INF. D. HENRIQUE (PONTE XA,,38.72435379,-9.1120662689,,,0,,,0,
1_9822,,AV. INF. D. HENRIQUE (PONTE XA,,38.725421906,-9.1121730804,,,0,,,0,
1_9811,,AV. INF. D. HENRIQUE (TIPOGRAF,,38.723049164,-9.1130485535,,,0,,,0,
1_9812,,AV. INF. D. HENRIQUE (TIPOGRAF,,38.72265625,-9.1135158539,,,0,,,0,
1_2315,,AV. INF. D. HENRIQUE / AV. BER,,38.766834259,-9.1040039062,,,0,,,0,
1_2324,,AV. INF. D. HENRIQUE / AV. BER,,38.76657486,-9.1043758392,,,0,,,0,
1_2322,,AV. INF. D. HENRIQUE / AV. PÁD,,38.763442993,-9.1040878296,,,0,,,0,
1_2313,,AV. INF. D. HENRIQUE / AV. PÁD,,38.76367569,-9.1036710739,,,0,,,0,
1_10101,,AV. INF. SANTO (GASÓMETRO),,38.709861755,-9.1658582687,,,0,,,0,
1_10102,,AV. INF. SANTO (GASÓMETRO),,38.70942688,-9.166674614,,,0,,,0,
1_10103,,AV. INF. SANTO / R. SANTANA À,,38.712017059,-9.1633405685,,,0,,,0,
1_10104,,AV. INF. SANTO / R. SANTANA À,,38.711391449,-9.1643686295,,,0,,,0,
1_10109,,AV. INFANTE SANTO,,38.711753845,-9.1639280319,,,0,,,0,
1_10201,,AV. INFANTE SANTO,,38.703361511,-9.1670236588,,,0,,,0,
1_10202,,AV. INFANTE SANTO,,38.703445435,-9.1677284241,,,0,,,0,
1_10203,,AV. INFANTE SANTO,,38.704189301,-9.1679582596,,,0,,,0,
1_10204,,AV. INFANTE SANTO,,38.703804016,-9.1682386398,,,0,,,0,
1_10209,,AV. INFANTE SANTO,,38.7045784,-9.1673641205,,,0,,,0,
1_10210,,AV. INFANTE SANTO,,38.70475769,-9.1677589417,,,0,,,0,
1_18103,,AV. IVENS,,38.733791351,-9.2190380096,,,0,,,0,
1_18106,,AV. IVENS,,38.733112335,-9.2196702957,,,0,,,0,
1_6401,,AV. JOÃO XXI,,38.742206573,-9.1403541565,,,0,,,0,
1_6402,,AV. JOÃO XXI,,38.742431641,-9.1404590607,,,0,,,0,
1_304,,AV. JOÃO XXI / PÇ. LONDRES,,38.742370605,-9.1375694275,,,0,,,0,
1_305,,AV. JOÃO XXI / PÇ. LONDRES,,38.742511749,-9.1363430023,,,0,,,0,
1_94901,,AV. JOSÉ GOMES FERREIRA,,38.714927673,-9.2312068939,,,0,,,0,
1_94902,,AV. JOSÉ GOMES FERREIRA,,38.714855194,-9.2315139771,,,0,,,0,
1_1613,,AV. JOSÉ MALHOA,,38.737567902,-9.1645040512,,,0,,,0,
1_2713,,AV. JOSÉ MALHOA,,38.737728119,-9.1676311493,,,0,,,0,
1_1507,,AV. MADAME CURIE,,38.738334656,-9.1619615555,,,0,,,0,
1_1510,,AV. MADAME CURIE,,38.738155365,-9.1618442535,,,0,,,0,
1_11114,,AV. MANUEL DA MAIA,,38.737140656,-9.1363792419,,,0,,,0,
1_11103,,AV. MANUEL DA MAIA (INE),,38.738277435,-9.1368398666,,,0,,,0,
1_11104,,AV. MANUEL DA MAIA (INE),,38.738742828,-9.1367197037,,,0,,,0,
1_406,,AV. MANUEL MAIA,,38.736442566,-9.1359376907,,,0,,,0,
1_7506,,AV. MARECHAL GOMES DA COSTA,,38.761703491,-9.1220903397,,,0,,,0,
1_7509,,AV. MARECHAL GOMES DA COSTA,,38.761222839,-9.1219415665,,,0,,,0,
1_7503,,AV. MARECHAL GOMES DA COSTA,,38.761173248,-9.1217699051,,,0,,,0,
1_7504,,AV. MARECHAL GOMES DA COSTA,,38.761619568,-9.1218175888,,,0,,,0,
1_2301,,AV. MARECHAL GOMES DA COSTA,,38.75730896,-9.1086654663,,,0,,,0,
1_2302,,AV. MARECHAL GOMES DA COSTA,,38.757511139,-9.1088314056,,,0,,,0,
1_8406,,AV. MARECHAL GOMES DA COSTA,,38.759037018,-9.113407135,,,0,,,0,
1_8407,,AV. MARECHAL GOMES DA COSTA,,38.759754181,-9.1167707443,,,0,,,0,
1_8408,,AV. MARECHAL GOMES DA COSTA,,38.760150909,-9.117102623,,,0,,,0,
1_1412,,AV. MARQUÊS DE TOMAR,,38.73613739,-9.1494808197,,,0,,,0,
1_1409,,AV. MARQUÊS DE TOMAR,,38.736541748,-9.1505842209,,,0,,,0,
1_1410,,AV. MARQUÊS DE TOMAR,,38.735935211,-9.1495685577,,,0,,,0,
1_1811,,AV. MIGUEL BOMBARDA (ISCAL),,38.737159729,-9.1467065811,,,0,,,0,
1_50021,,AV. NAÇÕES UNIDAS,,38.764621735,-9.1770572662,,,0,,,0,
1_50022,,AV. NAÇÕES UNIDAS,,38.764080048,-9.176612854,,,0,,,0,
1_6019,,AV. NUNO KRUZ ABECASSIS,,38.779811859,-9.1515846252,,,0,,,0,
1_6020,,AV. NUNO KRUZ ABECASSIS,,38.779628754,-9.1516590118,,,0,,,0,
1_8422,,AV. PÁDUA,,38.762851715,-9.1084508896,,,0,,,0,
1_8420,,AV. PÁDUA,,38.762992859,-9.1079092026,,,0,,,0,
1_3719,,AV. PAULO VI,,38.744319916,-9.11074543,,,0,,,0,
1_3720,,AV. PAULO VI,,38.744361877,-9.1109266281,,,0,,,0,
1_2211,,AV. PAULO VI,,38.748252869,-9.1079702377,,,0,,,0,
1_2217,,AV. PAULO VI,,38.748046875,-9.1080760956,,,0,,,0,
1_2218,,AV. PAULO VI,,38.748252869,-9.1087818146,,,0,,,0,
1_2219,,AV. PAULO VI,,38.747898102,-9.1089544296,,,0,,,0,
1_2212,,AV. PAULO VI,,38.74797821,-9.1078052521,,,0,,,0,
1_3715,,AV. PAULO VI - IGREJA,,38.742408752,-9.1127519608,,,0,,,0,
1_3716,,AV. PAULO VI - IGREJA,,38.742462158,-9.1129350662,,,0,,,0,
1_3717,,AV. PAULO VI - IGREJA,,38.74307251,-9.1117992401,,,0,,,0,
1_3718,,AV. PAULO VI - IGREJA,,38.74319458,-9.111951828,,,0,,,0,
1_323,,AV. PE. MANUEL NÓBREGA,,38.742984772,-9.1335391998,,,0,,,0,
1_18118,,AV. QTA GRANDE/RUA DA ENCOSTA,,38.735656738,-9.2216720581,,,0,,,0,
1_18119,,AV. QTA GRANDE/RUA DA ENCOSTA,,38.735767365,-9.2217082977,,,0,,,0,
1_18126,,AV. QUINTA GRANDE,,38.739513397,-9.2240104675,,,0,,,0,
1_18127,,AV. QUINTA GRANDE,,38.739631653,-9.2238893509,,,0,,,0,
1_5813,,AV. RAINHA D. AMÉLIA,,38.766773224,-9.1606607437,,,0,,,0,
1_5816,,AV. RAINHA D. AMÉLIA,,38.766601562,-9.1597690582,,,0,,,0,
1_5901,,AV. RAINHA D. LEONOR,,38.767189026,-9.1579217911,,,0,,,0,
1_5902,,AV. RAINHA D. LEONOR,,38.767650604,-9.1583623886,,,0,,,0,
1_3612,,Av. REPÚBLICA BULGÁRIA,,38.748970032,-9.1161842346,,,0,,,0,
1_9707,,AV. RESTELO,,38.699176788,-9.2143096924,,,0,,,0,
1_11204,,AV. RIO JANEIRO / AV. EUA,,38.748901367,-9.1367397308,,,0,,,0,
1_11205,,AV. RIO JANEIRO / AV. EUA,,38.750240326,-9.1372890472,,,0,,,0,
1_7404,,AV. RODRIGO DA CUNHA,,38.754852295,-9.134221077,,,0,,,0,
1_7405,,AV. RODRIGO DA CUNHA,,38.754707336,-9.1341152191,,,0,,,0,
1_306,,AV. ROMA (PISCINA),,38.744544983,-9.1395111084,,,0,,,0,
1_307,,AV. ROMA (PISCINA),,38.744285583,-9.1391191483,,,0,,,0,
1_208,,AV. ROMA / AV. EUA,,38.749004364,-9.1426210403,,,0,,,0,
1_203,,AV. ROMA / AV. EUA,,38.750083923,-9.1421470642,,,0,,,0,
1_204,,AV. ROMA / AV. EUA,,38.75,-9.1425094604,,,0,,,0,
1_205,,AV. ROMA / AV. EUA,,38.749343872,-9.1427955627,,,0,,,0,
1_11108,,AV. ROVISCO PAIS,,38.735191345,-9.1395759583,,,0,,,0,
1_7406,,AV. SANTA JOANA PRINCESA,,38.754684448,-9.1365537643,,,0,,,0,
1_7407,,AV. SANTA JOANA PRINCESA,,38.754592896,-9.1363840103,,,0,,,0,
1_8703,,AV. TENENTE MARTINS,,38.728824615,-9.1905202866,,,0,,,0,
1_8704,,AV. TENENTE MARTINS,,38.728691101,-9.1907663345,,,0,,,0,
1_10913,,AV. URUGUAI,,38.751434326,-9.1974897385,,,0,,,0,
1_10914,,AV. URUGUAI,,38.751502991,-9.1972675323,,,0,,,0,
1_3609,,AV. VERGÍLIO FERREIRA (FUNDAÇÃ,,38.743526459,-9.1188631058,,,0,,,0,
1_3610,,AV. VERGÍLIO FERREIRA (FUNDAÇÃ,,38.744132996,-9.1184501648,,,0,,,0,
1_1407,,AV. VISCONDE VALMOR,,38.737522125,-9.149518013,,,0,,,0,
1_1408,,AV. VISCONDE VALMOR,,38.737903595,-9.1498880386,,,0,,,0,
1_12805,,AV.NORTON MATOS(TORRES LISBOA),,38.757781982,-9.1757202148,,,0,,,0,
1_12806,,AV.NORTON MATOS(TORRES LISBOA),,38.757457733,-9.1757059097,,,0,,,0,
1_12613,,AVENIDA DOS DESCOBRIMENTOS,,38.78194046,-9.1139936447,,,0,,,0,
1_2312,,AZ. BAPTISTA,,38.752887726,-9.103635788,,,0,,,0,
1_2319,,AZ. BAPTISTA,,38.753471375,-9.1031103134,,,0,,,0,
1_5920,,AZ. CIDADE,,38.774684906,-9.1605672836,,,0,,,0,
1_16002,,AZ. FETAIS,,38.79851532,-9.1472826004,,,0,,,0,
1_16003,,AZ. FETAIS,,38.798698425,-9.147649765,,,0,,,0,
1_50001,,AZ. GALHARDAS,,38.757106781,-9.1667699814,,,0,,,0,
1_50002,,AZ. GALHARDAS,,38.757419586,-9.1673622131,,,0,,,0,
1_11604,,AZ. GALINHEIRAS,,38.793773651,-9.1498727798,,,0,,,0,
1_11606,,AZ. GALINHEIRAS,,38.793884277,-9.1499166489,,,0,,,0,
1_5914,,AZ. POÇO BAIXO,,38.772624969,-9.1704206467,,,0,,,0,
1_16008,,AZ. REGUENGO,,38.790470123,-9.1447477341,,,0,,,0,
1_16006,,AZ. REGUENGO,,38.788414001,-9.1453456879,,,0,,,0,
1_16007,,AZ. REGUENGO,,38.790851593,-9.1443166733,,,0,,,0,
1_5928,,AZ. S. GONÇALO,,38.781616211,-9.1565666199,,,0,,,0,
1_5933,,AZ. S. GONÇALO,,38.781867981,-9.1569671631,,,0,,,0,
1_83115,,AZ. SALGADA,,38.736221313,-9.1131477356,,,0,,,0,
1_83116,,AZ. SALGADA,,38.736095428,-9.1132326126,,,0,,,0,
1_12831,,AZ. SERRADO,,38.767433167,-9.1855716705,,,0,,,0,
1_12832,,AZ. SERRADO,,38.767642975,-9.1853923798,,,0,,,0,
1_5934,,AZ. TORRE FATO,,38.770107269,-9.1775989532,,,0,,,0,
1_5937,,AZ. TORRE FATO,,38.770267487,-9.1771383286,,,0,,,0,
1_12525,,AZ. VEIGAS,,38.73657608,-9.1077928543,,,0,,,0,
1_12518,,AZ. VEIGAS,,38.736618042,-9.1079654694,,,0,,,0,
1_12904,,B.º AJUDA (ESCOLA),,38.711727142,-9.2011146545,,,0,,,0,
1_3607,,B.º ARMADOR,,38.746250153,-9.119767189,,,0,,,0,
1_3608,,B.º ARMADOR,,38.74659729,-9.119260788,,,0,,,0,
1_8828,,B.º BOAVISTA,,38.736156464,-9.2054576874,,,0,,,0,
1_8846,,B.º BOAVISTA - ESTR. OUTEIRO,,38.734794617,-9.2019424438,,,0,,,0,
1_2809,,B.º CALHARIZ BENFICA,,38.743122101,-9.1982717514,,,0,,,0,
1_2810,,B.º CALHARIZ BENFICA,,38.742099762,-9.2001008987,,,0,,,0,
1_12913,,B.º CARAMÃO,,38.710868835,-9.2053823471,,,0,,,0,
1_14727,,B.º FLAMENGA,,38.752277374,-9.1232099533,,,0,,,0,
1_14728,,B.º FLAMENGA,,38.752658844,-9.1230020523,,,0,,,0,
1_12810,,B.º HORTA NOVA,,38.767051697,-9.1817073822,,,0,,,0,
1_12811,,B.º HORTA NOVA,,38.767280579,-9.1812982559,,,0,,,0,
1_14705,,B.º LOIOS,,38.759254456,-9.1247148514,,,0,,,0,
1_14706,,B.º LOIOS,,38.759120941,-9.1248025894,,,0,,,0,
1_83105,,B.º MADRE DEUS,,38.732040405,-9.114397049,,,0,,,0,
1_83107,,B.º MADRE DEUS (ESCOLA),,38.734024048,-9.1126461029,,,0,,,0,
1_10703,,B.º NOVO,,38.744338989,-9.1787424088,,,0,,,0,
1_10704,,B.º NOVO,,38.744556427,-9.1791400909,,,0,,,0,
1_14108,,B.º PADRE CRUZ,,38.769248962,-9.1892280579,,,0,,,0,
1_14112,,B.º PADRE CRUZ,,38.769592285,-9.1896343231,,,0,,,0,
1_201,,B.º S. MIGUEL - AV. ROMA,,38.747570038,-9.1408309937,,,0,,,0,
1_202,,B.º S. MIGUEL - AV. ROMA,,38.747428894,-9.14108181,,,0,,,0,
1_6023,,B.º SETE CÉUS,,38.786048889,-9.1499328613,,,0,,,0,
1_6024,,B.º SETE CÉUS,,38.785900116,-9.1499500275,,,0,,,0,
1_2905,,B.º STA. CRUZ,,38.747699738,-9.207028389,,,0,,,0,
1_2909,,B.º STA. CRUZ,,38.747879028,-9.2072534561,,,0,,,0,
1_2910,,B.º STA. CRUZ,,38.747833252,-9.2073802948,,,0,,,0,
1_12513,,BEATO,,38.73550415,-9.1036720276,,,0,,,0,
1_12514,,BEATO,,38.735275269,-9.1039485931,,,0,,,0,
1_12505,,BEATO,,38.734909058,-9.1047039032,,,0,,,0,
1_12506,,BEATO,,38.73468399,-9.1051206589,,,0,,,0,
1_3605,,BELA VISTA (CENTRO COMERCIAL),,38.747882843,-9.1185445786,,,0,,,0,
1_3606,,BELA VISTA (CENTRO COMERCIAL),,38.748203278,-9.1184253693,,,0,,,0,
1_3611,,BELA VISTA (METRO),,38.74413681,-9.1184520721,,,0,,,0,
1_4109,,BELÉM,,38.697128296,-9.2007341385,,,0,,,0,
1_4110,,BELÉM,,38.697483063,-9.1988811493,,,0,,,0,
1_4111,,BELÉM,,38.697116852,-9.2008361816,,,0,,,0,
1_4112,,BELÉM,,38.697460175,-9.198589325,,,0,,,0,
1_4113,,BELÉM,,38.697380066,-9.1988201141,,,0,,,0,
1_4104,,BELÉM / CÇ. DA AJUDA,,38.697986603,-9.1993875504,,,0,,,0,
1_4103,,BELÉM / CÇ. DA AJUDA,,38.697822571,-9.1994876862,,,0,,,0,
1_10915,,BENFICA,,38.74861145,-9.1992101669,,,0,,,0,
1_10920,,BENFICA (AV. GRÃO VASCO),,38.74993515,-9.2030477524,,,0,,,0,
1_10921,,BENFICA (AV. GRÃO VASCO),,38.750137329,-9.2032327652,,,0,,,0,
1_2904,,BENFICA (MERCADO),,38.749740601,-9.2070016861,,,0,,,0,
1_2903,,BENFICA (MERCADO),,38.750221252,-9.2076797485,,,0,,,0,
1_3722,,Bº ALFINETES,,38.741859436,-9.1084518433,,,0,,,0,
1_1405,,Bº AZUL,,38.733333588,-9.1547441483,,,0,,,0,
1_1406,,Bº AZUL,,38.733413696,-9.1545209885,,,0,,,0,
1_1501,,Bº AZUL - GULBENKIAN,,38.736709595,-9.1558036804,,,0,,,0,
1_1502,,Bº AZUL - GULBENKIAN,,38.736530304,-9.1559362411,,,0,,,0,
1_12903,,Bº DA AJUDA - ESCOLA,,38.711654663,-9.2012376785,,,0,,,0,
1_12910,,Bº DA AJUDA - ESCOLA,,38.712097168,-9.2017831802,,,0,,,0,
1_8829,,Bº DA BOAVISTA,,38.736400604,-9.2054691315,,,0,,,0,
1_8807,,Bº DA BOAVISTA,,38.736347198,-9.2058172226,,,0,,,0,
1_8808,,Bº DA BOAVISTA,,38.736465454,-9.2059183121,,,0,,,0,
1_6132,,Bº DA CÇ. DOS MESTRES,,38.727981567,-9.1703958511,,,0,,,0,
1_6111,,Bº DA CÇ. DOS MESTRES,,38.729434967,-9.1670732498,,,0,,,0,
1_6112,,Bº DA CÇ. DOS MESTRES,,38.726360321,-9.1676683426,,,0,,,0,
1_12303,,Bº DA ENCARNAÇÃO,,38.775344849,-9.1133842468,,,0,,,0,
1_12304,,Bº DA ENCARNAÇÃO,,38.774753571,-9.11419487,,,0,,,0,
1_14711,,Bº DA FLAMENGA,,38.752857208,-9.1234340668,,,0,,,0,
1_14715,,Bº DA FLAMENGA,,38.752761841,-9.1235980988,,,0,,,0,
1_2705,,Bº DA LIBERDADE,,38.733333588,-9.1689014435,,,0,,,0,
1_2706,,Bº DA LIBERDADE,,38.733085632,-9.1690568924,,,0,,,0,
1_3711,,Bº DAS SALGADAS,,38.738407135,-9.1131572723,,,0,,,0,
1_3712,,Bº DAS SALGADAS,,38.738437653,-9.1133594513,,,0,,,0,
1_6109,,Bº DE CAMPOLIDE,,38.728965759,-9.16609478,,,0,,,0,
1_6110,,Bº DE CAMPOLIDE,,38.72851181,-9.1659898758,,,0,,,0,
1_8717,,Bº DE MONSANTO,,38.732791901,-9.1937217712,,,0,,,0,
1_8718,,Bº DE MONSANTO,,38.732711792,-9.193608284,,,0,,,0,
1_3305,,Bº DE SANTOS,,38.744846344,-9.1565818787,,,0,,,0,
1_3306,,Bº DE SANTOS,,38.745342255,-9.1570339203,,,0,,,0,
1_18111,,Bº DO ALTO DO MOÍNHO,,38.727523804,-9.2121505737,,,0,,,0,
1_18102,,Bº DO ALTO DO MOÍNHO,,38.727745056,-9.2124013901,,,0,,,0,
1_11803,,Bº DO ALVITO,,38.71414566,-9.1820278168,,,0,,,0,
1_11804,,Bº DO ALVITO,,38.713794708,-9.1815986633,,,0,,,0,
1_10723,,Bº DO CALHAU,,38.739276886,-9.1775169373,,,0,,,0,
1_12914,,Bº DO CARAMÃO,,38.711040497,-9.2057914734,,,0,,,0,
1_11903,,Bº DO LOUREIRO - AV. DE CEUTA,,38.715873718,-9.1755113602,,,0,,,0,
1_11904,,Bº DO LOUREIRO - AV. DE CEUTA,,38.715919495,-9.1758050919,,,0,,,0,
1_8842,,Bº DO ZAMBUJAL,,38.738681793,-9.2103691101,,,0,,,0,
1_8843,,Bº DO ZAMBUJAL,,38.738723755,-9.2107057571,,,0,,,0,
1_12923,,Bº DOIS DE MAIO,,38.712093353,-9.1991844177,,,0,,,0,
1_12924,,Bº DOIS DE MAIO,,38.712169647,-9.1987991333,,,0,,,0,
1_15101,,Bº DOUTOR LIMA PIMENTEL,,38.78609848,-9.1832103729,,,0,,,0,
1_83106,,Bº MADRE DEUS,,38.731925964,-9.1149740219,,,0,,,0,
1_83110,,Bº MADRE DEUS (ESCOLA),,38.733867645,-9.1125402451,,,0,,,0,
1_83108,,Bº MADRE DEUS/ESCOLA,,38.733844757,-9.1127605438,,,0,,,0,
1_14107,,Bº PADRE CRUZ,,38.769542694,-9.1897144318,,,0,,,0,
1_2209,,Bº PRODAC,,38.746601105,-9.1071157455,,,0,,,0,
1_2210,,Bº PRODAC,,38.746742249,-9.1068763733,,,0,,,0,
1_13617,,Bº SÃO JOÃO,,38.753612518,-9.1745386124,,,0,,,0,
1_13618,,Bº SÃO JOÃO,,38.754520416,-9.1756038666,,,0,,,0,
1_9605,,Bº TERRAS DO FORNO,,38.701946259,-9.2065782547,,,0,,,0,
1_9606,,Bº TERRAS DO FORNO,,38.701572418,-9.2063512802,,,0,,,0,
1_13409,,BOA HORA,,38.703689575,-9.1947202682,,,0,,,0,
1_13410,,BOA HORA,,38.703712463,-9.1952342987,,,0,,,0,
1_13401,,BOA HORA,,38.702934265,-9.1947450638,,,0,,,0,
1_13402,,BOA HORA (R. GUARDA JÓIAS),,38.704860687,-9.1938114166,,,0,,,0,
1_11307,,BOMBEIROS ALVALADE,,38.757099152,-9.1401634216,,,0,,,0,
1_11314,,BOMBEIROS ALVALADE,,38.756343842,-9.1399965286,,,0,,,0,
1_11315,,BOMBEIROS DE ALVALADE,,38.756793976,-9.1396942139,,,0,,,0,
1_15102,,BOMBEIROS DE ODIVELAS,,38.787418365,-9.1797447205,,,0,,,0,
1_15103,,BOMBEIROS DE ODIVELAS,,38.78742218,-9.1794948578,,,0,,,0,
1_8811,,BURACA,,38.743862152,-9.2055168152,,,0,,,0,
1_8814,,BURACA,,38.743824005,-9.2057657242,,,0,,,0,
1_3016,,BURACA - AV. DA REPÚBLICA,,38.746086121,-9.212272644,,,0,,,0,
1_3017,,BURACA - AV. DA REPÚBLICA,,38.74597168,-9.2123842239,,,0,,,0,
1_8819,,BURACA (Bº TACHA),,38.741798401,-9.2117042542,,,0,,,0,
1_8820,,BURACA (Bº TACHA),,38.742359161,-9.2115287781,,,0,,,0,
1_8416,,CABO RUIVO,,38.757167816,-9.1125631332,,,0,,,0,
1_8409,,CABO RUIVO - AV. MAR. GOMES CO,,38.75875473,-9.1134357452,,,0,,,0,
1_3905,,CAIS DA ROCHA,,38.70350647,-9.162730217,,,0,,,0,
1_3906,,CAIS DA ROCHA,,38.703670502,-9.1625051498,,,0,,,0,
1_78101,,CAIS DO OLIVAL,,38.776134491,-9.0949687958,,,0,,,0,
1_78102,,CAIS DO OLIVAL,,38.776023865,-9.0951042175,,,0,,,0,
1_78103,,CAIS DO OLIVAL,,38.777194977,-9.0942697525,,,0,,,0,
1_8204,,CAIS LINGUETA,,38.711013794,-9.1268520355,,,0,,,0,
1_78104,,CAIS OLIVAL - AL.OCEANOS,,38.775917053,-9.0947580338,,,0,,,0,
1_3817,,CAIS SODRÉ,,38.70665741,-9.1432752609,,,0,,,0,
1_3801,,CAIS SODRÉ,,38.705886841,-9.1431503296,,,0,,,0,
1_3802,,CAIS SODRÉ,,38.70633316,-9.145277977,,,0,,,0,
1_3803,,CAIS SODRÉ,,38.706245422,-9.1450242996,,,0,,,0,
1_3804,,CAIS SODRÉ,,38.706012726,-9.1440591812,,,0,,,0,
1_3807,,CAIS SODRÉ,,38.705726624,-9.1433238983,,,0,,,0,
1_3810,,CAIS SODRÉ,,38.70558548,-9.143901825,,,0,,,0,
1_3811,,CAIS SODRÉ,,38.7057724,-9.1439008713,,,0,,,0,
1_3812,,CAIS SODRÉ,,38.705474854,-9.1434631348,,,0,,,0,
1_3816,,CAIS SODRÉ (CENTRO SAÚDE),,38.707237244,-9.1450223923,,,0,,,0,
1_10804,,CALHARIZ,,38.749591827,-9.1913146973,,,0,,,0,
1_10806,,CALHARIZ,,38.749160767,-9.1904697418,,,0,,,0,
1_10807,,CALHARIZ,,38.7485466,-9.1912126541,,,0,,,0,
1_10814,,CALHARIZ,,38.748947144,-9.1911849976,,,0,,,0,
1_10510,,CALHARIZ (BICA),,38.710800171,-9.1453237534,,,0,,,0,
1_10511,,CALHARIZ (BICA),,38.71081543,-9.1460046768,,,0,,,0,
1_10803,,CALHARIZ (ESCOLA),,38.748203278,-9.1925706863,,,0,,,0,
1_10815,,CALHARIZ (RUA RIBEIRO REIS),,38.746334076,-9.1896543503,,,0,,,0,
1_10822,,CALHARIZ (RUA RIBEIRO REIS),,38.746269226,-9.1898212433,,,0,,,0,
1_13710,,CALIÇA,,38.757659912,-9.2047100067,,,0,,,0,
1_13711,,CALIÇA,,38.757312775,-9.2045030594,,,0,,,0,
1_12122,,CALVARIO,,38.705379486,-9.1765441895,,,0,,,0,
1_12121,,CALVÁRIO,,38.704780579,-9.1776742935,,,0,,,0,
1_12115,,CALVÁRIO,,38.704654694,-9.1774425507,,,0,,,0,
1_12116,,CALVÁRIO,,38.704681396,-9.1774930954,,,0,,,0,
1_12101,,CALVÁRIO,,38.704662323,-9.177148819,,,0,,,0,
1_12102,,CALVÁRIO,,38.704742432,-9.1776351929,,,0,,,0,
1_12105,,CALVÁRIO,,38.705394745,-9.1763095856,,,0,,,0,
1_6006,,CAMPO AMOREIRAS,,38.785449982,-9.1431999207,,,0,,,0,
1_6009,,CAMPO AMOREIRAS,,38.78571701,-9.1426868439,,,0,,,0,
1_4503,,CAMPO CEBOLAS,,38.708686829,-9.1304531097,,,0,,,0,
1_8004,,CAMPO DE OURIQUE,,38.714385986,-9.1691427231,,,0,,,0,
1_8028,,CAMPO DE OURIQUE (PRAZERES),,38.714256287,-9.1699819565,,,0,,,0,
1_8029,,CAMPO DE OURIQUE / PRAZERES,,38.714698792,-9.1700620651,,,0,,,0,
1_8016,,CAMPO DE OURIQUE / PRAZERES,,38.71439743,-9.1700258255,,,0,,,0,
1_2008,,CAMPO GRANDE,,38.752124786,-9.1512479782,,,0,,,0,
1_2017,,CAMPO GRANDE,,38.752319336,-9.149646759,,,0,,,0,
1_5703,,CAMPO GRANDE - AV. BRASIL,,38.754806519,-9.1525630951,,,0,,,0,
1_5704,,CAMPO GRANDE - AV. BRASIL,,38.753913879,-9.1525630951,,,0,,,0,
1_5705,,CAMPO GRANDE - AV. BRASIL,,38.755630493,-9.1514406204,,,0,,,0,
1_5706,,CAMPO GRANDE - AV. BRASIL,,38.754615784,-9.1518888474,,,0,,,0,
1_5707,,CAMPO GRANDE - AV. BRASIL,,38.755840302,-9.1515579224,,,0,,,0,
1_5708,,CAMPO GRANDE - AV. BRASIL,,38.755134583,-9.150346756,,,0,,,0,
1_5710,,CAMPO GRANDE - AV. BRASIL,,38.754020691,-9.152636528,,,0,,,0,
1_5712,,CAMPO GRANDE - AV. BRASIL,,38.755050659,-9.150633812,,,0,,,0,
1_5827,,CAMPO GRANDE (METRO),,38.761077881,-9.1573476791,,,0,,,0,
1_5809,,CAMPO GRANDE (METRO),,38.760780334,-9.158200264,,,0,,,0,
1_5807,,CAMPO GRANDE (METRO),,38.761100769,-9.1571826935,,,0,,,0,
1_5824,,CAMPO GRANDE (METRO),,38.76033783,-9.157125473,,,0,,,0,
1_5828,,CAMPO GRANDE (METRO) - SÓ DESC,,38.760372162,-9.1582431793,,,0,,,0,
1_5810,,CAMPO GRANDE NORTE,,38.759731293,-9.1558294296,,,0,,,0,
1_5803,,CAMPO GRANDE NORTE,,38.759109497,-9.1556549072,,,0,,,0,
1_5804,,CAMPO GRANDE NORTE,,38.757789612,-9.1553993225,,,0,,,0,
1_5805,,CAMPO GRANDE NORTE,,38.758590698,-9.1540327072,,,0,,,0,
1_5806,,CAMPO GRANDE NORTE,,38.75762558,-9.1552810669,,,0,,,0,
1_5808,,CAMPO GRANDE-METRO,,38.760936737,-9.1573266983,,,0,,,0,
1_5829,,CAMPO GRANDE-METRO,,38.760665894,-9.1575450897,,,0,,,0,
1_5825,,CAMPO GRANDE-METRO,,38.760944366,-9.1571311951,,,0,,,0,
1_5826,,CAMPO GRANDE-METRO,,38.760810852,-9.1575050354,,,0,,,0,
1_5841,,CAMPO GRANDE-METRO,,38.760623932,-9.1578111649,,,0,,,0,
1_9213,,CAMPO MÁRTIRES DA PÁTRIA,,38.721675873,-9.1390552521,,,0,,,0,
1_9214,,CAMPO MÁRTIRES DA PÁTRIA,,38.721961975,-9.1392097473,,,0,,,0,
1_9208,,CAMPO MÁRTIRES PÁTRIA,,38.722244263,-9.1398925781,,,0,,,0,
1_9203,,CAMPO MÁRTIRES PÁTRIA,,38.722415924,-9.1398420334,,,0,,,0,
1_9204,,CAMPO MÁRTIRES PÁTRIA,,38.722232819,-9.1397228241,,,0,,,0,
1_8017,,CAMPO OURIQUE (PRAZERES),,38.71428299,-9.1695194244,,,0,,,0,
1_1901,,CAMPO PEQUENO,,38.742977142,-9.1467437744,,,0,,,0,
1_1902,,CAMPO PEQUENO,,38.741920471,-9.1470041275,,,0,,,0,
1_1903,,CAMPO PEQUENO,,38.742782593,-9.1466960907,,,0,,,0,
1_1904,,CAMPO PEQUENO,,38.741786957,-9.144241333,,,0,,,0,
1_1905,,CAMPO PEQUENO,,38.743553162,-9.144859314,,,0,,,0,
1_1906,,CAMPO PEQUENO,,38.741699219,-9.146946907,,,0,,,0,
1_1908,,CAMPO PEQUENO,,38.741531372,-9.1442136765,,,0,,,0,
1_1914,,CAMPO PEQUENO - AV. DE BERNA,,38.741249084,-9.147936821,,,0,,,0,
1_1915,,CAMPO PEQUENO - AV. DE BERNA,,38.741123199,-9.1472606659,,,0,,,0,
1_9211,,CAMPO SANTANA,,38.723659515,-9.1398468018,,,0,,,0,
1_9212,,CAMPO SANTANA,,38.7241745,-9.1398744583,,,0,,,0,
1_9207,,CAMPO SANTANA,,38.722911835,-9.1403341293,,,0,,,0,
1_2123,,CAMPO STA. CLARA,,38.715389252,-9.1230840683,,,0,,,0,
1_2124,,CAMPO STA. CLARA,,38.715435028,-9.1232242584,,,0,,,0,
1_6130,,CAMPOLIDE,,38.726764679,-9.1619930267,,,0,,,0,
1_6119,,CAMPOLIDE,,38.727718353,-9.1620206833,,,0,,,0,
1_6101,,CAMPOLIDE,,38.727592468,-9.1617822647,,,0,,,0,
1_6102,,CAMPOLIDE,,38.727031708,-9.1624298096,,,0,,,0,
1_6113,,CAMPOLIDE,,38.726425171,-9.1624355316,,,0,,,0,
1_6104,,CAMPOLIDE,,38.726242065,-9.1622867584,,,0,,,0,
1_6105,,CAMPOLIDE,,38.727489471,-9.1629228592,,,0,,,0,
1_6106,,CAMPOLIDE,,38.727760315,-9.1604127884,,,0,,,0,
1_6129,,CAMPOLIDE (AV. CONS. FERNANDO,,38.727390289,-9.161450386,,,0,,,0,
1_6120,,CAMPOLIDE (AV. CONS. FERNANDO,,38.72644043,-9.1614780426,,,0,,,0,
1_13510,,CANTINA DA UNIVERSIDADE,,38.751399994,-9.1587657928,,,0,,,0,
1_13507,,CANTINA DA UNIVERSIDADE,,38.75075531,-9.158864975,,,0,,,0,
1_12906,,CARAMÃO (AJUDA),,38.714580536,-9.2045230865,,,0,,,0,
1_12905,,CARAMÃO DA AJUDA,,38.714450836,-9.2045621872,,,0,,,0,
1_12816,,CARNIDE,,38.759300232,-9.1873846054,,,0,,,0,
1_12819,,CARNIDE,,38.759429932,-9.1868391037,,,0,,,0,
1_12821,,CARNIDE (METRO),,38.759483337,-9.1926412582,,,0,,,0,
1_12822,,CARNIDE (METRO),,38.759037018,-9.1926307678,,,0,,,0,
1_12814,,CARNIDE-METRO,,38.759742737,-9.1909179688,,,0,,,0,
1_12817,,CARNIDE-METRO,,38.759441376,-9.1901769638,,,0,,,0,
1_9007,,CASAL VISTOSO,,38.741535187,-9.1284122467,,,0,,,0,
1_9008,,CASAL VISTOSO,,38.741416931,-9.1294193268,,,0,,,0,
1_10309,,CASALINHO DA AJUDA,,38.709194183,-9.1920013428,,,0,,,0,
1_10401,,CASELAS,,38.716953278,-9.2131671906,,,0,,,0,
1_10404,,CASELAS,,38.716945648,-9.2128067017,,,0,,,0,
1_5913,,CASTANHEIRA MOURA,,38.774181366,-9.1568670273,,,0,,,0,
1_5930,,CASTANHEIRA MOURA,,38.774463654,-9.1569023132,,,0,,,0,
1_13810,,CASTELO,,38.712291718,-9.1324901581,,,0,,,0,
1_10302,,CÇ. AJUDA (GNR),,38.706443787,-9.199057579,,,0,,,0,
1_13404,,CÇ. BOA HORA,,38.702159882,-9.1926746368,,,0,,,0,
1_13416,,CÇ. BOA-HORA,,38.699981689,-9.1904621124,,,0,,,0,
1_8918,,CÇ. CARRASCAL,,38.734973907,-9.1185369492,,,0,,,0,
1_7219,,CÇ. CARRICHE,,38.781505585,-9.164349556,,,0,,,0,
1_7207,,CÇ. CARRICHE / ESTR. DESVIO,,38.782917023,-9.1646966934,,,0,,,0,
1_7202,,CÇ. CARRICHE / ESTR. DESVIO,,38.782131195,-9.1647472382,,,0,,,0,
1_5910,,CÇ. CARRICHE / ESTR. MILITAR,,38.778358459,-9.1642961502,,,0,,,0,
1_9903,,CÇ. COMBRO,,38.710971832,-9.1494855881,,,0,,,0,
1_9904,,CÇ. COMBRO,,38.711029053,-9.1498403549,,,0,,,0,
1_9825,,CÇ. CRUZ DA PEDRA,,38.720386505,-9.1181077957,,,0,,,0,
1_9813,,CÇ. CRUZ DA PEDRA,,38.72051239,-9.1168727875,,,0,,,0,
1_9814,,CÇ. CRUZ DA PEDRA,,38.720359802,-9.1171140671,,,0,,,0,
1_9824,,CÇ. CRUZ PEDRA,,38.720462799,-9.117811203,,,0,,,0,
1_13311,,CÇ. DA AJUDA,,38.702980042,-9.199464798,,,0,,,0,
1_10301,,CÇ. DA AJUDA - GNR,,38.706378937,-9.1991939545,,,0,,,0,
1_10311,,CÇ. DA AJUDA - PALÁCIO,,38.707168579,-9.1991033554,,,0,,,0,
1_13407,,CÇ. DA BOA HORA,,38.70306778,-9.1933193207,,,0,,,0,
1_13408,,CÇ. DA BOA HORA,,38.703132629,-9.1933956146,,,0,,,0,
1_12119,,CÇ. DA TAPADA,,38.706268311,-9.1793861389,,,0,,,0,
1_12120,,CÇ. DA TAPADA,,38.70608902,-9.1790132523,,,0,,,0,
1_9802,,CÇ. DAS LAJES,,38.72555542,-9.1187238693,,,0,,,0,
1_5923,,CÇ. DE CARRICHE,,38.778095245,-9.1642389297,,,0,,,0,
1_2131,,CÇ. DE SANTA APOLÓNIA,,38.718063354,-9.1188058853,,,0,,,0,
1_13112,,CÇ. DO GALVÃO - GNR,,38.707302094,-9.2025156021,,,0,,,0,
1_8305,,CÇ. DO GRILO,,38.730247498,-9.1078939438,,,0,,,0,
1_8316,,CÇ. DO GRILO,,38.729789734,-9.1086091995,,,0,,,0,
1_9413,,CÇ. DO LIVRAMENTO,,38.705814362,-9.171749115,,,0,,,0,
1_11615,,CÇ. DO MERCADO,,38.792385101,-9.1481161118,,,0,,,0,
1_11617,,CÇ. DO MERCADO,,38.792762756,-9.1481800079,,,0,,,0,
1_6107,,CÇ. DOS MESTRES,,38.726516724,-9.1650352478,,,0,,,0,
1_8606,,CÇ. DOS SETE MOÍNHOS,,38.726200104,-9.1704244614,,,0,,,0,
1_83122,,CÇ. DUQUE LAFÕES,,38.733757019,-9.107424736,,,0,,,0,
1_6721,,CÇ. ESTRELA,,38.712219238,-9.1551399231,,,0,,,0,
1_6719,,CÇ. ESTRELA / R. BORGES CARNEI,,38.712566376,-9.1563453674,,,0,,,0,
1_6720,,CÇ. ESTRELA / R. BORGES CARNEI,,38.712478638,-9.1557264328,,,0,,,0,
1_6717,,CÇ. ESTRELA / R. DR. TEÓFILO B,,38.712734222,-9.15782547,,,0,,,0,
1_6718,,CÇ. ESTRELA / R. DR. TEÓFILO B,,38.712760925,-9.1574363708,,,0,,,0,
1_9601,,CÇ. GALVÃO,,38.700683594,-9.2030010223,,,0,,,0,
1_9602,,CÇ. GALVÃO,,38.700298309,-9.2030496597,,,0,,,0,
1_13111,,CÇ. GALVÃO (GNR),,38.707416534,-9.202630043,,,0,,,0,
1_8306,,CÇ. GRILO,,38.730178833,-9.1080551147,,,0,,,0,
1_8317,,CÇ. GRILO,,38.730003357,-9.1087036133,,,0,,,0,
1_9801,,CÇ. LAJES,,38.725662231,-9.1188993454,,,0,,,0,
1_6108,,CÇ. MESTRES,,38.726810455,-9.1650686264,,,0,,,0,
1_12703,,CÇ. PALMA BAIXO,,38.746292114,-9.1678943634,,,0,,,0,
1_12704,,CÇ. PALMA BAIXO,,38.746891022,-9.1678857803,,,0,,,0,
1_12702,,CÇ. PALMA BAIXO / ESTR. LARANJ,,38.745075226,-9.168627739,,,0,,,0,
1_8904,,CÇ. PICHELEIRA,,38.73740387,-9.124215126,,,0,,,0,
1_13806,,CÇ. S. VICENTE,,38.713508606,-9.1287250519,,,0,,,0,
1_83109,,CÇ. TEIXEIRA,,38.735473633,-9.117064476,,,0,,,0,
1_13708,,CÇ. TOJAL (CEMITÉRIO BENFICA),,38.75686264,-9.2047290802,,,0,,,0,
1_13709,,CÇ. TOJAL (CEMITÉRIO BENFICA),,38.756591797,-9.2047920227,,,0,,,0,
1_12915,,CEMITÉRIO AJUDA,,38.710235596,-9.2037000656,,,0,,,0,
1_12909,,CEMITÉRIO AJUDA,,38.709579468,-9.2034254074,,,0,,,0,
1_11701,,CEMITÉRIO ALTO DE SÃO JOÃO,,38.729125977,-9.1224079132,,,0,,,0,
1_11702,,CEMITÉRIO ALTO S. JOÃO,,38.728862762,-9.1221933365,,,0,,,0,
1_13703,,CEMITÉRIO BENFICA,,38.756729126,-9.201133728,,,0,,,0,
1_13704,,CEMITÉRIO BENFICA,,38.75686264,-9.2014074326,,,0,,,0,
1_12916,,CEMITÉRIO DA AJUDA,,38.709609985,-9.203332901,,,0,,,0,
1_12917,,CEMITÉRIO DA AJUDA,,38.709716797,-9.2031002045,,,0,,,0,
1_12929,,CEMITÉRIO DA AJUDA,,38.709934235,-9.2030763626,,,0,,,0,
1_14115,,CEMITÉRIO DE CARNIDE,,38.773258209,-9.1829271317,,,0,,,0,
1_14116,,CEMITÉRIO DE CARNIDE,,38.773048401,-9.1836233139,,,0,,,0,
1_8423,,CEMITÉRIO DOS OLIVAIS,,38.762359619,-9.1095485687,,,0,,,0,
1_8424,,CEMITÉRIO DOS OLIVAIS,,38.762432098,-9.1098022461,,,0,,,0,
1_12615,,CENTRO COMERCIAL DA PORTELA,,38.781005859,-9.1118297577,,,0,,,0,
1_12610,,CENTRO COMERCIAL DA PORTELA,,38.783802032,-9.1125030518,,,0,,,0,
1_12625,,CENTRO COMERCIAL DA PORTELA,,38.781082153,-9.1103601456,,,0,,,0,
1_8435,,CENTRO COMERCIAL DOS OLIVAIS,,38.761508942,-9.1139888763,,,0,,,0,
1_8419,,CENTRO COMERCIAL DOS OLIVAIS,,38.763031006,-9.1140680313,,,0,,,0,
1_8421,,CENTRO COMERCIAL DOS OLIVAIS,,38.761604309,-9.1136713028,,,0,,,0,
1_9513,,CENTRO CONGRESSOS,,38.69966507,-9.1837368011,,,0,,,0,
1_13209,,CENTRO CULTURAL BELÉM,,38.696079254,-9.2097167969,,,0,,,0,
1_13210,,CENTRO CULTURAL BELÉM,,38.696292877,-9.2093458176,,,0,,,0,
1_13208,,CENTRO CULTURAL BELÉM,,38.696151733,-9.20748806,,,0,,,0,
1_13213,,CENTRO CULTURAL BELÉM,,38.696250916,-9.2071418762,,,0,,,0,
1_12210,,CENTRO DE SAÚDE DA ENCARNAÇÃO,,38.772541046,-9.1177930832,,,0,,,0,
1_12211,,CENTRO DE SAÚDE DA ENCARNAÇÃO,,38.772449493,-9.1179447174,,,0,,,0,
1_1618,,CENTRO DE SAÚDE DE SETE RIOS,,38.739868164,-9.1689395905,,,0,,,0,
1_13412,,CENTRO SAÚDE AJUDA,,38.70552063,-9.1943082809,,,0,,,0,
1_19001,,CENTRO SUL,,38.667591095,-9.1638088226,,,0,,,0,
1_7222,,CHAPELEIRO,,38.790431976,-9.1597137451,,,0,,,0,
1_7223,,CHAPELEIRO,,38.79227066,-9.1575641632,,,0,,,0,
1_7224,,CHAPELEIRO,,38.79240799,-9.157374382,,,0,,,0,
1_7225,,CHAPELEIRO,,38.79050827,-9.1597824097,,,0,,,0,
1_6007,,CHARNECA,,38.787143707,-9.1421146393,,,0,,,0,
1_6008,,CHARNECA,,38.78717804,-9.1445980072,,,0,,,0,
1_6005,,CHARNECA,,38.78717804,-9.1425151825,,,0,,,0,
1_13705,,CHARQUINHO,,38.755786896,-9.1998195648,,,0,,,0,
1_13706,,CHARQUINHO,,38.755706787,-9.1994304657,,,0,,,0,
1_10514,,CHIADO,,38.710323334,-9.1420106888,,,0,,,0,
1_10515,,CHIADO,,38.710079193,-9.1424636841,,,0,,,0,
1_5701,,CIDADE UNIVERSITÁRIA,,38.753845215,-9.1565170288,,,0,,,0,
1_5702,,CIDADE UNIVERSITÁRIA,,38.752841949,-9.155919075,,,0,,,0,
1_13504,,CIDADE UNIVERSITÁRIA,,38.752643585,-9.1594047546,,,0,,,0,
1_13511,,CIDADE UNIVERSITÁRIA,,38.750591278,-9.1587781906,,,0,,,0,
1_13514,,CIDADE UNIVERSITÁRIA,,38.75019455,-9.1589107513,,,0,,,0,
1_12921,,CIF,,38.715156555,-9.2077646255,,,0,,,0,
1_12922,,CIF,,38.715156555,-9.2080116272,,,0,,,0,
1_12925,,CLUBE ATLÉTICO CARAMÃO,,38.712848663,-9.2068462372,,,0,,,0,
1_11805,,CLUBE DE TÉNIS,,38.716991425,-9.1838798523,,,0,,,0,
1_11806,,CLUBE DE TÉNIS,,38.716472626,-9.1837453842,,,0,,,0,
1_13607,,COLÉGIO MILITAR,,38.75825882,-9.1799983978,,,0,,,0,
1_13608,,COLÉGIO MILITAR,,38.758888245,-9.180727005,,,0,,,0,
1_10811,,COLÉGIO MILITAR (METRO),,38.75289917,-9.1896362305,,,0,,,0,
1_10827,,COLÉGIO MILITAR (METRO),,38.751731873,-9.1875991821,,,0,,,0,
1_10816,,COLÉGIO MILITAR (METRO),,38.752010345,-9.187918663,,,0,,,0,
1_10813,,COLÉGIO MILITAR (METRO),,38.752891541,-9.1881771088,,,0,,,0,
1_10819,,COLÉGIO MILITAR (METRO),,38.752674103,-9.1895170212,,,0,,,0,
1_10820,,COLÉGIO MILITAR (METRO),,38.752544403,-9.1894254684,,,0,,,0,
1_10808,,COLÉGIO MILITAR (METRO),,38.752380371,-9.1889677048,,,0,,,0,
1_10832,,COLÉGIO MILITAR (METRO),,38.753067017,-9.1902837753,,,0,,,0,
1_10833,,COLÉGIO MILITAR (METRO),,38.752788544,-9.1897249222,,,0,,,0,
1_10823,,COLÉGIO MILITAR (METRO),,38.752731323,-9.1893520355,,,0,,,0,
1_10812,,COLÉGIO MILITAR (METRO),,38.752468109,-9.1895389557,,,0,,,0,
1_14710,,COLÉGIO VALSASSINA,,38.755500793,-9.1263456345,,,0,,,0,
1_14720,,COLÉGIO VALSASSINA,,38.755317688,-9.126414299,,,0,,,0,
1_7105,,CONDE BARÃO,,38.708812714,-9.1513080597,,,0,,,0,
1_7106,,CONDE BARÃO,,38.708618164,-9.1517620087,,,0,,,0,
1_7101,,CONDE BARÃO - AV. 24 JULHO,,38.706329346,-9.1499357224,,,0,,,0,
1_7102,,CONDE BARÃO - AV. 24 JULHO,,38.706413269,-9.1497678757,,,0,,,0,
1_7103,,CONDE BARÃO - AV. D. CARLOS I,,38.708900452,-9.1529388428,,,0,,,0,
1_7104,,CONDE BARÃO - AV. D. CARLOS I,,38.708599091,-9.1530952454,,,0,,,0,
1_3820,,CORPO SANTO,,38.707229614,-9.1416454315,,,0,,,0,
1_3821,,CORPO SANTO,,38.707302094,-9.1419792175,,,0,,,0,
1_3822,,CORPO SANTO,,38.706634521,-9.1424074173,,,0,,,0,
1_3823,,CORPO SANTO,,38.707023621,-9.1424636841,,,0,,,0,
1_3824,,CORPO SANTO,,38.706989288,-9.142206192,,,0,,,0,
1_13808,,COSTA DO CASTELO,,38.711788177,-9.1328849792,,,0,,,0,
1_10205,,COVA DA MOURA,,38.70759201,-9.1673288345,,,0,,,0,
1_10206,,COVA DA MOURA,,38.707019806,-9.1676292419,,,0,,,0,
1_10714,,CRUZ DA PEDRA,,38.741233826,-9.1761980057,,,0,,,0,
1_9817,,CRUZ DA PEDRA,,38.723686218,-9.1154317856,,,0,,,0,
1_8507,,CRUZ DAS ALMAS,,38.725345612,-9.1636314392,,,0,,,0,
1_8508,,CRUZ DAS ALMAS,,38.725307465,-9.1633176804,,,0,,,0,
1_8701,,CRUZ DAS OLIVEIRAS,,38.726593018,-9.1937513351,,,0,,,0,
1_8702,,CRUZ DAS OLIVEIRAS,,38.725341797,-9.1940784454,,,0,,,0,
1_8713,,CRUZ DAS OLIVEIRAS,,38.725528717,-9.1940307617,,,0,,,0,
1_8714,,CRUZ DAS OLIVEIRAS,,38.723964691,-9.1936225891,,,0,,,0,
1_4304,,CRUZ QUEBRADA,,38.701862335,-9.2513475418,,,0,,,0,
1_4307,,CRUZ QUEBRADA,,38.701896667,-9.2514533997,,,0,,,0,
1_4309,,CRUZ QUEBRADA (CLUBE TÉNIS JAM,,38.707740784,-9.2515153885,,,0,,,0,
1_4308,,CRUZ QUEBRADA (FAC. MOTRICIDAD,,38.705352783,-9.2523431778,,,0,,,0,
1_4301,,CRUZ QUEBRADA (FAC. MOTRICIDAD,,38.705169678,-9.2525272369,,,0,,,0,
1_14905,,DAFUNDO,,38.700141907,-9.2404460907,,,0,,,0,
1_14906,,DAFUNDO,,38.700279236,-9.2409238815,,,0,,,0,
1_14903,,DAFUNDO - R. 1º MAIO,,38.700626373,-9.2447128296,,,0,,,0,
1_14904,,DAFUNDO - R. 1º MAIO,,38.700733185,-9.2447433472,,,0,,,0,
1_3003,,DAMAIA - R. D. FRANCISCO ALMEI,,38.74962616,-9.2127342224,,,0,,,0,
1_3101,,DAMAIA - R. D. FRANCISCO ALMEI,,38.750507355,-9.2130498886,,,0,,,0,
1_3004,,DAMAIA DE CIMA,,38.746959686,-9.2201843262,,,0,,,0,
1_3005,,DAMAIA ESTAÇÃO,,38.747989655,-9.2145586014,,,0,,,0,
1_3022,,DAMAIA ESTAÇÃO,,38.748626709,-9.2165212631,,,0,,,0,
1_811,,DESTERRO,,38.719814301,-9.1381053925,,,0,,,0,
1_812,,DESTERRO,,38.719715118,-9.1377630234,,,0,,,0,
1_9209,,DESTERRO,,38.720607758,-9.1379909515,,,0,,,0,
1_8312,,DOCA DE XABREGAS,,38.728908539,-9.1073913574,,,0,,,0,
1_8311,,DOCA DE XABREGAS,,38.728984833,-9.1070222855,,,0,,,0,
1_12501,,DOCA POÇO DO BISPO,,38.743091583,-9.0990848541,,,0,,,0,
1_12504,,DOCA POÇO DO BISPO,,38.742500305,-9.0993261337,,,0,,,0,
1_10601,,ELEVADOR DA GLÓRIA,,38.714912415,-9.1444787979,,,0,,,0,
1_10602,,ELEVADOR DA GLÓRIA,,38.714500427,-9.1443548203,,,0,,,0,
1_12203,,ENCARNAÇÃO,,38.770812988,-9.1215572357,,,0,,,0,
1_12204,,ENCARNAÇÃO,,38.771083832,-9.1218776703,,,0,,,0,
1_12201,,ENCARNAÇÃO - BOMBEIROS,,38.770198822,-9.1231422424,,,0,,,0,
1_12202,,ENCARNAÇÃO - BOMBEIROS,,38.769615173,-9.1231393814,,,0,,,0,
1_12209,,ENCARNAÇÃO - BOMBEIROS,,38.769454956,-9.1231718063,,,0,,,0,
1_2001,,ENTRECAMPOS,,38.747447968,-9.1478500366,,,0,,,0,
1_2002,,ENTRECAMPOS,,38.747207642,-9.1484203339,,,0,,,0,
1_2004,,ENTRECAMPOS,,38.746929169,-9.1483602524,,,0,,,0,
1_2011,,ENTRECAMPOS,,38.747589111,-9.1478872299,,,0,,,0,
1_2016,,ENTRECAMPOS - AV. EUA,,38.748710632,-9.146651268,,,0,,,0,
1_2005,,ENTRECAMPOS - AV. EUA,,38.748413086,-9.1467418671,,,0,,,0,
1_2053,,ENTRECAMPOS - AV. EUA,,38.748363495,-9.1470136642,,,0,,,0,
1_2006,,ENTRECAMPOS NORTE,,38.748985291,-9.1494855881,,,0,,,0,
1_2003,,ENTRECAMPOS NORTE,,38.749794006,-9.1482467651,,,0,,,0,
1_2015,,ENTRECAMPOS NORTE,,38.749988556,-9.1483478546,,,0,,,0,
1_89910,,ESC. D. DINIS,,38.751953125,-9.1140394211,,,0,,,0,
1_89918,,ESC. D. DINIS,,38.752536774,-9.114733696,,,0,,,0,
1_89911,,ESC. D. DINIS,,38.752220154,-9.114030838,,,0,,,0,
1_89912,,ESC. D. DINIS,,38.751998901,-9.1135063171,,,0,,,0,
1_89913,,ESC. D. DINIS,,38.752048492,-9.1135063171,,,0,,,0,
1_14707,,ESC. DAMIÃO GÓIS,,38.757396698,-9.1265459061,,,0,,,0,
1_14708,,ESC. DAMIÃO GÓIS,,38.757621765,-9.126376152,,,0,,,0,
1_10708,,ESC. DELFIM SANTOS,,38.748485565,-9.1816558838,,,0,,,0,
1_8012,,ESC. MANUEL MAIA,,38.717113495,-9.1694984436,,,0,,,0,
1_8917,,ESC. Nº 28,,38.735294342,-9.121260643,,,0,,,0,
1_7009,,ESC. NUNO GONÇALVES,,38.727611542,-9.1282100677,,,0,,,0,
1_7006,,ESC. NUNO GONÇALVES,,38.72719574,-9.1283950806,,,0,,,0,
1_9819,,ESC. PATRICIO PRAZERES,,38.721809387,-9.1199655533,,,0,,,0,
1_13109,,ESC. PAULA VICENTE,,38.705360413,-9.2031869888,,,0,,,0,
1_13113,,ESC. PAULA VICENTE,,38.705623627,-9.2024450302,,,0,,,0,
1_13114,,ESC. PAULA VICENTE,,38.705852509,-9.2022943497,,,0,,,0,
1_10802,,ESC. PEDRO SANTARÉM,,38.750141144,-9.1955890656,,,0,,,0,
1_10835,,ESC. PEDRO SANTARÉM,,38.749736786,-9.1942720413,,,0,,,0,
1_11509,,ESC. PINTOR ALMADA NEGREIROS,,38.777282715,-9.1464328766,,,0,,,0,
1_11511,,ESC. PINTOR ALMADA NEGREIROS,,38.777133942,-9.1464672089,,,0,,,0,
1_101,,ESC. RAINHA D. LEONOR,,38.751834869,-9.1432170868,,,0,,,0,
1_102,,ESC. RAINHA D. LEONOR,,38.752082825,-9.1436128616,,,0,,,0,
1_6026,,ESC. S. GONÇALO,,38.783824921,-9.1493425369,,,0,,,0,
1_6027,,ESC. S. GONÇALO,,38.783924103,-9.149266243,,,0,,,0,
1_12827,,ESC. SEC. CARNIDE,,38.75976181,-9.1796398163,,,0,,,0,
1_12828,,ESC. SEC. CARNIDE,,38.759658813,-9.1798086166,,,0,,,0,
1_83120,,ESC. SEC. LUIS A. VERNEY,,38.734542847,-9.1135425568,,,0,,,0,
1_11508,,ESC. SEC. LUMIAR,,38.774906158,-9.1553344727,,,0,,,0,
1_11502,,ESC. SEC. LUMIAR,,38.774669647,-9.1558303833,,,0,,,0,
1_50015,,ESC. SEC. TELHEIRAS,,38.760150909,-9.1744060516,,,0,,,0,
1_50016,,ESC. SEC. TELHEIRAS,,38.76001358,-9.1744060516,,,0,,,0,
1_79113,,ESC. VASCO GAMA,,38.777851105,-9.0926837921,,,0,,,0,
1_12515,,ESCOLA AFONSO DOMINGUES,,38.735225677,-9.1084661484,,,0,,,0,
1_12516,,ESCOLA AFONSO DOMINGUES,,38.73500824,-9.108833313,,,0,,,0,
1_3704,,ESCOLA DE MARVILA,,38.739917755,-9.1106119156,,,0,,,0,
1_3709,,ESCOLA DE MARVILA,,38.740978241,-9.1093759537,,,0,,,0,
1_10707,,ESCOLA DELFIM SANTOS,,38.748161316,-9.1809577942,,,0,,,0,
1_1605,,ESCOLA DOM PEDRO V,,38.741184235,-9.1632928848,,,0,,,0,
1_1608,,ESCOLA DOM PEDRO V,,38.741222382,-9.162522316,,,0,,,0,
1_10107,,ESCOLA JOSEFA DE ÓBIDOS,,38.712730408,-9.1669511795,,,0,,,0,
1_10108,,ESCOLA JOSEFA DE ÓBIDOS,,38.712680817,-9.1664705276,,,0,,,0,
1_8013,,ESCOLA MANUEL DA MAIA,,38.716991425,-9.169629097,,,0,,,0,
1_11317,,ESCOLA PADRE ANTÓNIO VIEIRA,,38.757522583,-9.1362886429,,,0,,,0,
1_9823,,ESCOLA PATRÍCIO PRAZERES,,38.721290588,-9.1198377609,,,0,,,0,
1_13110,,ESCOLA PAULA VICENTE,,38.705589294,-9.2038536072,,,0,,,0,
1_10801,,ESCOLA PEDRO SANTARÉM,,38.749763489,-9.194393158,,,0,,,0,
1_14311,,ESCOLA PREPARATÓRIA MIRAFLORES,,38.711082458,-9.2261896133,,,0,,,0,
1_14312,,ESCOLA PREPARATÓRIA MIRAFLORES,,38.711235046,-9.2258663177,,,0,,,0,
1_15104,,ESCOLA PREPARATÓRIA ODIVELAS,,38.789451599,-9.1771907806,,,0,,,0,
1_15107,,ESCOLA PREPARATÓRIA ODIVELAS,,38.789848328,-9.1764087677,,,0,,,0,
1_7717,,ESCOLA SECUNDÁRIA DOS OLIVAIS,,38.765285492,-9.1096162796,,,0,,,0,
1_7718,,ESCOLA SECUNDÁRIA DOS OLIVAIS,,38.764900208,-9.1097812653,,,0,,,0,
1_8430,,ESCOLA VITORINO NEMÉSIO,,38.756645203,-9.1146259308,,,0,,,0,
1_87101,,Espaço Monsanto,,38.740673065,-9.1865530014,,,0,,,0,
1_3102,,EST. DAMAIA,,38.748630524,-9.2165222168,,,0,,,0,
1_2811,,ESTAÇÃO BENFICA,,38.744720459,-9.1990432739,,,0,,,0,
1_2812,,ESTAÇÃO BENFICA,,38.744884491,-9.1998233795,,,0,,,0,
1_2805,,ESTAÇÃO BENFICA,,38.744709015,-9.1988506317,,,0,,,0,
1_2806,,ESTAÇÃO BENFICA,,38.745014191,-9.1989583969,,,0,,,0,
1_2207,,ESTAÇÃO BRAÇO PRATA,,38.747093201,-9.1049718857,,,0,,,0,
1_2208,,ESTAÇÃO BRAÇO PRATA,,38.747180939,-9.1047315598,,,0,,,0,
1_2213,,ESTAÇÃO BRAÇO PRATA,,38.745788574,-9.1047239304,,,0,,,0,
1_12812,,ESTAÇÃO DA PONTINHA,,38.760673523,-9.1949491501,,,0,,,0,
1_12813,,ESTAÇÃO DA PONTINHA,,38.760326385,-9.1941404343,,,0,,,0,
1_3007,,ESTAÇÃO DAMAIA,,38.748336792,-9.2152776718,,,0,,,0,
1_3018,,ESTAÇÃO DAMAIA,,38.748134613,-9.2151899338,,,0,,,0,
1_2701,,ESTAÇÃO DE CAMPOLIDE,,38.731376648,-9.1685037613,,,0,,,0,
1_2702,,ESTAÇÃO DE CAMPOLIDE,,38.731235504,-9.1686029434,,,0,,,0,
1_2704,,ESTAÇÃO DE CAMPOLIDE,,38.730838776,-9.1686029434,,,0,,,0,
1_2714,,ESTAÇÃO DE CAMPOLIDE,,38.729988098,-9.1682424545,,,0,,,0,
1_2715,,ESTAÇÃO DE CAMPOLIDE,,38.729953766,-9.1660909653,,,0,,,0,
1_2716,,ESTAÇÃO DE CAMPOLIDE,,38.731361389,-9.1683568954,,,0,,,0,
1_2101,,ESTAÇÃO DE SANTA APOLÓNIA,,38.713531494,-9.1234712601,,,0,,,0,
1_2133,,ESTAÇÃO DE SANTA APOLÓNIA,,38.713733673,-9.1225185394,,,0,,,0,
1_12106,,ESTAÇÃO DE SANTO AMARO,,38.702423096,-9.1803245544,,,0,,,0,
1_12111,,ESTAÇÃO DE SANTO AMARO,,38.702213287,-9.1806774139,,,0,,,0,
1_12123,,ESTAÇÃO DE SANTO AMARO,,38.702659607,-9.1801834106,,,0,,,0,
1_12107,,ESTAÇÃO DE SANTO AMARO,,38.703075409,-9.1798219681,,,0,,,0,
1_12108,,ESTAÇÃO DE SANTO AMARO,,38.701992035,-9.1810407639,,,0,,,0,
1_12112,,ESTAÇÃO DE SANTO AMARO,,38.702587128,-9.1809387207,,,0,,,0,
1_1620,,ESTAÇÃO DE SETE RIOS,,38.739162445,-9.16751194,,,0,,,0,
1_1621,,ESTAÇÃO DE SETE RIOS,,38.740566254,-9.1674089432,,,0,,,0,
1_3301,,ESTAÇÃO DO REGO,,38.74168396,-9.1561698914,,,0,,,0,
1_2019,,ESTAÇÃO ENTRECAMPOS,,38.745170593,-9.1479530334,,,0,,,0,
1_2020,,ESTAÇÃO ENTRECAMPOS,,38.744651794,-9.1478147507,,,0,,,0,
1_2021,,ESTAÇÃO ENTRECAMPOS,,38.745929718,-9.1474819183,,,0,,,0,
1_2022,,ESTAÇÃO ENTRECAMPOS,,38.746112823,-9.1475391388,,,0,,,0,
1_2051,,ESTAÇÃO ENTRECAMPOS,,38.745822906,-9.1481189728,,,0,,,0,
1_4101,,ESTAÇÃO FLUVIAL DE BELÉM,,38.696220398,-9.198340416,,,0,,,0,
1_4102,,ESTAÇÃO FLUVIAL DE BELÉM,,38.696716309,-9.1991348267,,,0,,,0,
1_11501,,ESTAÇÃO MUSGUEIRA,,38.774612427,-9.1473989487,,,0,,,0,
1_11505,,ESTAÇÃO MUSGUEIRA,,38.7747612,-9.1474313736,,,0,,,0,
1_11506,,ESTAÇÃO MUSGUEIRA,,38.774921417,-9.1477499008,,,0,,,0,
1_11522,,ESTAÇÃO MUSGUEIRA,,38.774856567,-9.1473646164,,,0,,,0,
1_7816,,ESTAÇÃO ORIENTE,,38.767757416,-9.1000318527,,,0,,,0,
1_7817,,ESTAÇÃO ORIENTE,,38.768177032,-9.0999898911,,,0,,,0,
1_7820,,ESTAÇÃO ORIENTE,,38.767986298,-9.0999479294,,,0,,,0,
1_7825,,ESTAÇÃO ORIENTE,,38.767173767,-9.0990848541,,,0,,,0,
1_7805,,ESTAÇÃO ORIENTE,,38.768474579,-9.0988359451,,,0,,,0,
1_7808,,ESTAÇÃO ORIENTE,,38.767990112,-9.1000089645,,,0,,,0,
1_2504,,ESTAÇÃO ORIENTE (INTERFACE),,38.76757431,-9.09998703,,,0,,,0,
1_7813,,ESTAÇÃO ORIENTE (INTERFACE),,38.767757416,-9.0999708176,,,0,,,0,
1_7814,,ESTAÇÃO ORIENTE (INTERFACE),,38.768173218,-9.0999298096,,,0,,,0,
1_320,,ESTAÇÃO ROMA-AREEIRO,,38.745574951,-9.1352081299,,,0,,,0,
1_321,,ESTAÇÃO ROMA-AREEIRO,,38.745578766,-9.1353940964,,,0,,,0,
1_314,,ESTAÇÃO ROMA-AREEIRO,,38.746101379,-9.1328287125,,,0,,,0,
1_79124,,ESTAÇÃO SACAVÉM,,38.795696259,-9.1001930237,,,0,,,0,
1_79127,,ESTAÇÃO SACAVÉM,,38.796218872,-9.0996665955,,,0,,,0,
1_2712,,ESTAÇÃO SETE RIOS,,38.738826752,-9.1685276031,,,0,,,0,
1_2113,,ESTAÇÃO STA. APOLÓNIA,,38.71282196,-9.1231899261,,,0,,,0,
1_2114,,ESTAÇÃO STA. APOLÓNIA,,38.713577271,-9.1227035522,,,0,,,0,
1_2115,,ESTAÇÃO STA. APOLÓNIA,,38.713546753,-9.1239881516,,,0,,,0,
1_2118,,ESTAÇÃO STA. APOLÓNIA,,38.713401794,-9.1228971481,,,0,,,0,
1_2111,,ESTAÇÃO STA. APOLÓNIA,,38.713035583,-9.1229543686,,,0,,,0,
1_2127,,ESTAÇÃO STA. APOLÓNIA (MERCADO,,38.716720581,-9.1189393997,,,0,,,0,
1_2128,,ESTAÇÃO STA. APOLÓNIA (MERCADO,,38.716781616,-9.1191368103,,,0,,,0,
1_9613,,ESTÁDIO - AV. DO RESTELO,,38.700370789,-9.2099866867,,,0,,,0,
1_9614,,ESTÁDIO - AV. DO RESTELO,,38.700527191,-9.2097949982,,,0,,,0,
1_11201,,ESTÁDIO 1º MAIO,,38.753093719,-9.138010025,,,0,,,0,
1_11202,,ESTÁDIO 1º MAIO,,38.752468109,-9.1379127502,,,0,,,0,
1_10809,,ESTÁDIO DA LUZ,,38.754337311,-9.1851234436,,,0,,,0,
1_10810,,ESTÁDIO DA LUZ,,38.754051208,-9.1860361099,,,0,,,0,
1_11801,,ESTÁDIO DA TAPADINHA,,38.709682465,-9.1794567108,,,0,,,0,
1_11802,,ESTÁDIO DA TAPADINHA,,38.709537506,-9.1795778275,,,0,,,0,
1_13124,,ESTÁDIO DO RESTELO,,38.704189301,-9.2078561783,,,0,,,0,
1_13107,,ESTÁDIO DO RESTELO,,38.70400238,-9.2063570023,,,0,,,0,
1_13108,,ESTÁDIO DO RESTELO,,38.703876495,-9.2065629959,,,0,,,0,
1_8837,,ESTÁDIO PINA MANIQUE,,38.736991882,-9.2018814087,,,0,,,0,
1_6501,,ESTEFÂNIA,,38.732124329,-9.1410560608,,,0,,,0,
1_6502,,ESTEFÂNIA,,38.732555389,-9.1409950256,,,0,,,0,
1_6506,,ESTEFÂNIA - AV. CASAL RIBEIRO,,38.731906891,-9.1420059204,,,0,,,0,
1_10909,,ESTR. ARNEIROS,,38.754203796,-9.1977710724,,,0,,,0,
1_10910,,ESTR. ARNEIROS,,38.754482269,-9.1978197098,,,0,,,0,
1_1615,,ESTR. BENFICA (FURNAS),,38.742420197,-9.1724081039,,,0,,,0,
1_1616,,ESTR. BENFICA (FURNAS),,38.742584229,-9.1726617813,,,0,,,0,
1_11008,,ESTR. BENFICA (MERCADO),,38.752876282,-9.2061872482,,,0,,,0,
1_11009,,ESTR. BENFICA (MERCADO),,38.751991272,-9.2058315277,,,0,,,0,
1_11010,,ESTR. BENFICA (MERCADO),,38.752521515,-9.2064666748,,,0,,,0,
1_10905,,ESTR. BENFICA / AV. GOMES PERE,,38.750587463,-9.1985883713,,,0,,,0,
1_10906,,ESTR. BENFICA / AV. GOMES PERE,,38.750694275,-9.1986465454,,,0,,,0,
1_10907,,ESTR. BENFICA / AV. GOMES PERE,,38.749778748,-9.1975059509,,,0,,,0,
1_10908,,ESTR. BENFICA / AV. GOMES PERE,,38.749294281,-9.1976699829,,,0,,,0,
1_8835,,ESTR. BURACA,,38.741634369,-9.2028207779,,,0,,,0,
1_83111,,ESTR. CHELAS,,38.73392868,-9.1172552109,,,0,,,0,
1_83112,,ESTR. CHELAS,,38.734634399,-9.1172962189,,,0,,,0,
1_4305,,ESTR. COSTA,,38.703369141,-9.2514352798,,,0,,,0,
1_13605,,ESTR. DA LUZ / RUA DOS SOEIROS,,38.756637573,-9.1778249741,,,0,,,0,
1_13606,,ESTR. DA LUZ / RUA DOS SOEIROS,,38.756595612,-9.1773939133,,,0,,,0,
1_7217,,ESTR. DESVIO / R. PROF. J. PIN,,38.781982422,-9.1628227234,,,0,,,0,
1_7214,,ESTR. DESVIO / R. PROF. J. PIN,,38.782016754,-9.162940979,,,0,,,0,
1_7203,,ESTR. DESVIO / R. PROF. J. PIN,,38.781219482,-9.1629638672,,,0,,,0,
1_11601,,ESTR. FORTE (ESCOLA),,38.790752411,-9.1507606506,,,0,,,0,
1_11602,,ESTR. FORTE (ESCOLA),,38.790397644,-9.1506462097,,,0,,,0,
1_12707,,ESTR. LARANJEIRAS,,38.745559692,-9.169344902,,,0,,,0,
1_12708,,ESTR. LARANJEIRAS,,38.745265961,-9.1693134308,,,0,,,0,
1_5919,,ESTR. LUMIAR,,38.773971558,-9.1685609818,,,0,,,0,
1_12711,,ESTR. LUZ (LOJA CIDADÃO),,38.750865936,-9.1731348038,,,0,,,0,
1_12712,,ESTR. LUZ (LOJA CIDADÃO),,38.749664307,-9.1726026535,,,0,,,0,
1_12907,,ESTR. MARCOS,,38.713409424,-9.2026605606,,,0,,,0,
1_83121,,ESTR. MARVILA,,38.734642029,-9.1085700989,,,0,,,0,
1_12517,,ESTR. MARVILA / AZ. ALFINETES,,38.738056183,-9.1072158813,,,0,,,0,
1_12521,,ESTR. MARVILA / AZ. ALFINETES,,38.73815155,-9.1073150635,,,0,,,0,
1_14101,,ESTR. MILITAR (ESCORPIÕES),,38.770992279,-9.1935796738,,,0,,,0,
1_14102,,ESTR. MILITAR (ESCORPIÕES),,38.770957947,-9.193403244,,,0,,,0,
1_8848,,ESTR. OUTEIRO,,38.732341766,-9.2031803131,,,0,,,0,
1_10406,,ESTR. QUELUZ,,38.717460632,-9.2095346451,,,0,,,0,
1_5958,,ESTR. TORRE,,38.774166107,-9.1597537994,,,0,,,0,
1_5959,,ESTR. TORRE,,38.774242401,-9.1598901749,,,0,,,0,
1_8836,,ESTRADA DA BURACA,,38.74161911,-9.2028951645,,,0,,,0,
1_18710,,ESTRADA DA PORTELA,,38.72026062,-9.2195701599,,,0,,,0,
1_18711,,ESTRADA DA PORTELA,,38.72026825,-9.21945858,,,0,,,0,
1_8711,,ESTRADA DAS OLIVEIRAS DE BAIXO,,38.72618103,-9.1962862015,,,0,,,0,
1_8712,,ESTRADA DAS OLIVEIRAS DE BAIXO,,38.72625351,-9.1962242126,,,0,,,0,
1_8815,,ESTRADA DE ALFRAGIDE,,38.740749359,-9.2088956833,,,0,,,0,
1_8818,,ESTRADA DE ALFRAGIDE,,38.740833282,-9.2088975906,,,0,,,0,
1_18130,,ESTRADA DE ALFRAGIDE,,38.734752655,-9.2213630676,,,0,,,0,
1_18115,,ESTRADA DE ALFRAGIDE,,38.734874725,-9.2214756012,,,0,,,0,
1_8822,,ESTRADA DE ALFRAGIDE/BURACA,,38.742393494,-9.2062749863,,,0,,,0,
1_8821,,ESTRADA DE ALFRAGIDE/BURACA,,38.741725922,-9.2066068649,,,0,,,0,
1_10901,,ESTRADA DE BENFICA - MERCADO,,38.75202179,-9.2055149078,,,0,,,0,
1_10902,,ESTRADA DE BENFICA - MERCADO,,38.751991272,-9.2052488327,,,0,,,0,
1_7912,,ESTRADA DE MOSCAVIDE,,38.772781372,-9.0999708176,,,0,,,0,
1_10405,,ESTRADA DE QUELUZ,,38.717517853,-9.2098798752,,,0,,,0,
1_7205,,ESTRADA DESVIO / QTA. LAVADEIR,,38.783695221,-9.1635131836,,,0,,,0,
1_21307,,ESTRADA DO ALVITO,,38.723556519,-9.1871862411,,,0,,,0,
1_21308,,ESTRADA DO ALVITO,,38.723392487,-9.1871490479,,,0,,,0,
1_8849,,ESTRADA DO OUTEIRO,,38.732181549,-9.2033538818,,,0,,,0,
1_8847,,ESTRADA DO OUTEIRO/Bº BOAVISTA,,38.734481812,-9.2021951675,,,0,,,0,
1_18136,,ESTRADA DO SEMINÁRIO,,38.734390259,-9.2203607559,,,0,,,0,
1_18113,,ESTRADA DO ZAMBUJAL,,38.73481369,-9.2154407501,,,0,,,0,
1_18114,,ESTRADA DO ZAMBUJAL,,38.73456955,-9.2154436111,,,0,,,0,
1_12621,,ESTRADA NOVA CIRCUNVALAÇÃO,,38.776779175,-9.1102056503,,,0,,,0,
1_12622,,ESTRADA NOVA CIRCUNVALAÇÃO,,38.776889801,-9.1099853516,,,0,,,0,
1_12416,,ESTRADA PEDRO TEIXEIRA,,38.713611603,-9.2036590576,,,0,,,0,
1_21310,,ESTRADA PIMENTEIRA,,38.723133087,-9.1819839478,,,0,,,0,
1_18135,,ESTRADA SEMINÁRIO,,38.734519958,-9.2204532623,,,0,,,0,
1_8101,,ESTRELA,,38.713161469,-9.1620225906,,,0,,,0,
1_8102,,ESTRELA,,38.713272095,-9.1621732712,,,0,,,0,
1_8114,,ESTRELA,,38.713882446,-9.1605472565,,,0,,,0,
1_8115,,ESTRELA,,38.713207245,-9.1598405838,,,0,,,0,
1_8105,,ESTRELA,,38.714408875,-9.1606807709,,,0,,,0,
1_8109,,ESTRELA - R. DOMINGOS SEQUEIRA,,38.71408844,-9.1617145538,,,0,,,0,
1_8110,,ESTRELA - R. DOMINGOS SEQUEIRA,,38.714508057,-9.1621131897,,,0,,,0,
1_8111,,ESTRELA (BASÍLICA),,38.713626862,-9.1600646973,,,0,,,0,
1_8112,,ESTRELA (BASÍLICA),,38.713733673,-9.1602296829,,,0,,,0,
1_7611,,EXTERNATO CHAMPAGNAT,,38.777854919,-9.1268453598,,,0,,,0,
1_7612,,EXTERNATO CHAMPAGNAT,,38.777801514,-9.127073288,,,0,,,0,
1_12523,,FÁBRICA BRAÇO DE PRATA,,38.744609833,-9.1021356583,,,0,,,0,
1_12524,,FÁBRICA BRAÇO DE PRATA,,38.744361877,-9.1022119522,,,0,,,0,
1_2201,,FÁBRICA DO GÁS,,38.750305176,-9.09628582,,,0,,,0,
1_2202,,FÁBRICA DO GÁS,,38.75100708,-9.0958938599,,,0,,,0,
1_13501,,FACULDADE DE FARMÁCIA,,38.747379303,-9.1552524567,,,0,,,0,
1_13502,,FACULDADE DE FARMÁCIA,,38.747188568,-9.154624939,,,0,,,0,
1_16001,,FETAIS,,38.798042297,-9.1453428268,,,0,,,0,
1_10402,,FONTE CASELAS,,38.715797424,-9.2147026062,,,0,,,0,
1_10403,,FONTE DE CASELAS,,38.715713501,-9.2148008347,,,0,,,0,
1_16004,,FONTE PIPA,,38.796001434,-9.1493673325,,,0,,,0,
1_16005,,FONTE PIPA,,38.795951843,-9.1495170593,,,0,,,0,
1_10105,,FONTE SANTA,,38.711894989,-9.168970108,,,0,,,0,
1_10106,,FONTE SANTA,,38.711994171,-9.1686286926,,,0,,,0,
1_11608,,GALINHEIRAS,,38.792434692,-9.1502504349,,,0,,,0,
1_11613,,GALINHEIRAS,,38.79208374,-9.1503000259,,,0,,,0,
1_11603,,GALINHEIRAS,,38.792266846,-9.1507673264,,,0,,,0,
1_11625,,GALINHEIRAS,,38.792625427,-9.1503667831,,,0,,,0,
1_2307,,GÁS DE PORTUGAL,,38.753498077,-9.0961427689,,,0,,,0,
1_2316,,GÁS DE PORTUGAL,,38.753898621,-9.0960006714,,,0,,,0,
1_7609,,GASOLINEIRAS,,38.780990601,-9.1248407364,,,0,,,0,
1_7610,,GASOLINEIRAS,,38.780464172,-9.1254348755,,,0,,,0,
1_7607,,GEOFÍSICA,,38.7759552,-9.1263694763,,,0,,,0,
1_7608,,GEOFÍSICA,,38.775836945,-9.1265048981,,,0,,,0,
1_6907,,GOMES FREIRE,,38.726200104,-9.1408910751,,,0,,,0,
1_6909,,GOMES FREIRE,,38.726200104,-9.1407251358,,,0,,,0,
1_6901,,GOMES FREIRE,,38.725574493,-9.1407556534,,,0,,,0,
1_6902,,GOMES FREIRE,,38.725921631,-9.1406297684,,,0,,,0,
1_6611,,GOMES FREIRE - R. JOAQUIM BONI,,38.727321625,-9.1420183182,,,0,,,0,
1_6608,,GOMES FREIRE - R. JOAQUIM BONI,,38.727767944,-9.1429643631,,,0,,,0,
1_14803,,GRAÇA,,38.71723175,-9.1297168732,,,0,,,0,
1_14804,,GRAÇA,,38.717216492,-9.1298837662,,,0,,,0,
1_11607,,GRAFANIL,,38.79315567,-9.1554069519,,,0,,,0,
1_11612,,GRAFANIL,,38.793117523,-9.1552391052,,,0,,,0,
1_5801,,HIPÓDROMO,,38.75761795,-9.1625041962,,,0,,,0,
1_5802,,HIPÓDROMO,,38.75786972,-9.1628780365,,,0,,,0,
1_6903,,HOSP. D. ESTEFÂNIA,,38.729465485,-9.1404905319,,,0,,,0,
1_6904,,HOSP. D. ESTEFÂNIA,,38.72952652,-9.1403579712,,,0,,,0,
1_6905,,HOSP. D. ESTEFÂNIA,,38.727607727,-9.1397781372,,,0,,,0,
1_6906,,HOSP. D. ESTEFÂNIA,,38.727535248,-9.1408023834,,,0,,,0,
1_9506,,HOSP. EGAS MONIZ,,38.698467255,-9.1883840561,,,0,,,0,
1_9505,,HOSP. EGAS MONIZ,,38.69858551,-9.1873979568,,,0,,,0,
1_50102,,HOSP. FORÇAS ARMADAS,,38.769001007,-9.1747894287,,,0,,,0,
1_5945,,HOSP. FORÇAS ARMADAS,,38.768901825,-9.1748971939,,,0,,,0,
1_11321,,HOSP. JÚLIO MATOS,,38.756313324,-9.1469287872,,,0,,,0,
1_11301,,HOSP. JÚLIO MATOS,,38.756244659,-9.1471920013,,,0,,,0,
1_11302,,HOSP. JÚLIO MATOS,,38.755943298,-9.1456346512,,,0,,,0,
1_11304,,HOSP. JÚLIO MATOS,,38.757034302,-9.144449234,,,0,,,0,
1_30001,,HOSP. LUZ,,38.755428314,-9.1923809052,,,0,,,0,
1_5811,,HOSP. PULIDO VALENTE,,38.764568329,-9.156999588,,,0,,,0,
1_5814,,HOSP. PULIDO VALENTE,,38.765270233,-9.1573495865,,,0,,,0,
1_5812,,HOSP. PULIDO VALENTE,,38.765182495,-9.1568832397,,,0,,,0,
1_9205,,HOSP. STO. ANTÓNIO CAPUCHOS,,38.722949982,-9.1418638229,,,0,,,0,
1_9206,,HOSP. STO. ANTÓNIO CAPUCHOS,,38.722572327,-9.1415491104,,,0,,,0,
1_2407,,HOSPITAL DAS DESCOBERTAS,,38.75717926,-9.098156929,,,0,,,0,
1_13503,,HOSPITAL DE SANTA MARIA,,38.748550415,-9.1573944092,,,0,,,0,
1_13505,,HOSPITAL DE SANTA MARIA,,38.750076294,-9.1581315994,,,0,,,0,
1_13506,,HOSPITAL DE SANTA MARIA,,38.749996185,-9.1593503952,,,0,,,0,
1_13508,,HOSPITAL DE SANTA MARIA,,38.750190735,-9.1615810394,,,0,,,0,
1_13509,,HOSPITAL DE SANTA MARIA,,38.750003815,-9.1597080231,,,0,,,0,
1_13512,,HOSPITAL DE SANTA MARIA,,38.749988556,-9.1590557098,,,0,,,0,
1_13513,,HOSPITAL DE SANTA MARIA,,38.750209808,-9.1602182388,,,0,,,0,
1_2406,,HOSPITAL DESCOBERTAS,,38.757411957,-9.0981712341,,,0,,,0,
1_9501,,HOSPITAL EGAS MONIZ,,38.697425842,-9.1881504059,,,0,,,0,
1_9502,,HOSPITAL EGAS MONIZ,,38.697761536,-9.1869792938,,,0,,,0,
1_5820,,HOSPITAL PULIDO VALENTE,,38.765541077,-9.1574258804,,,0,,,0,
1_12928,,I.S.C.S.P.,,38.713718414,-9.1984834671,,,0,,,0,
1_701,,IGREJA ANJOS,,38.722129822,-9.1352643967,,,0,,,0,
1_702,,IGREJA ANJOS,,38.721946716,-9.1354618073,,,0,,,0,
1_704,,IGREJA ANJOS,,38.722122192,-9.1354446411,,,0,,,0,
1_705,,IGREJA ANJOS,,38.721996307,-9.1352767944,,,0,,,0,
1_12823,,IGREJA CARNIDE,,38.75982666,-9.185002327,,,0,,,0,
1_12824,,IGREJA CARNIDE,,38.75958252,-9.1852464676,,,0,,,0,
1_6011,,IGREJA CHARNECA,,38.783576965,-9.1433820724,,,0,,,0,
1_6014,,IGREJA CHARNECA,,38.783565521,-9.1432504654,,,0,,,0,
1_4302,,IGREJA CRUZ QUEBRADA,,38.701030731,-9.2495098114,,,0,,,0,
1_4303,,IGREJA CRUZ QUEBRADA,,38.701007843,-9.2497005463,,,0,,,0,
1_12205,,IGREJA DA ENCARNAÇÃO,,38.772701263,-9.1183795929,,,0,,,0,
1_12206,,IGREJA DA ENCARNAÇÃO,,38.773574829,-9.1186714172,,,0,,,0,
1_10903,,IGREJA DE BENFICA,,38.750614166,-9.2014551163,,,0,,,0,
1_10904,,IGREJA DE BENFICA,,38.750774384,-9.2017459869,,,0,,,0,
1_1401,,IGREJA DE SÃO SEBASTIÃO,,38.731807709,-9.1516160965,,,0,,,0,
1_1402,,IGREJA DE SÃO SEBASTIÃO,,38.7315979,-9.1517820358,,,0,,,0,
1_5917,,IGREJA LUMIAR,,38.774841309,-9.1649742126,,,0,,,0,
1_9807,,IGREJA MADRE DEUS,,38.724689484,-9.1133880615,,,0,,,0,
1_9808,,IGREJA MADRE DEUS,,38.724475861,-9.1138296127,,,0,,,0,
1_13309,,IGREJA MEMÓRIA,,38.702453613,-9.2025308609,,,0,,,0,
1_13310,,IGREJA MEMÓRIA,,38.702354431,-9.2022686005,,,0,,,0,
1_7017,,IGREJA PENHA FRANÇA,,38.729892731,-9.130941391,,,0,,,0,
1_5601,,IGREJA STA. MARIA MADALENA,,38.710048676,-9.1352710724,,,0,,,0,
1_8018,,IGREJA STO. CONDESTÁVEL,,38.71497345,-9.166431427,,,0,,,0,
1_8019,,IGREJA STO. CONDESTÁVEL,,38.714839935,-9.1665058136,,,0,,,0,
1_5932,,INETI,,38.769176483,-9.1792373657,,,0,,,0,
1_5935,,INETI,,38.769046783,-9.1792507172,,,0,,,0,
1_13212,,INST. ALTOS ESTUDOS MILITARES,,38.69688797,-9.220126152,,,0,,,0,
1_5823,,INST. RICARDO JORGE,,38.762554169,-9.1636133194,,,0,,,0,
1_5818,,INST. RICARDO JORGE,,38.766853333,-9.1640501022,,,0,,,0,
1_5815,,INST. RICARDO JORGE,,38.767051697,-9.1640815735,,,0,,,0,
1_13211,,INSTITUTO DE ESTUDOS MILITARES,,38.696605682,-9.220495224,,,0,,,0,
1_89906,,ISEL,,38.755092621,-9.1135473251,,,0,,,0,
1_89919,,ISEL,,38.756511688,-9.1133508682,,,0,,,0,
1_89903,,ISEL,,38.75598526,-9.113617897,,,0,,,0,
1_89904,,ISEL,,38.755599976,-9.1128282547,,,0,,,0,
1_89920,,ISEL,,38.75667572,-9.113240242,,,0,,,0,
1_6823,,JARDIM AMOREIRAS,,38.721515656,-9.1565408707,,,0,,,0,
1_6503,,JARDIM CONSTANTINO,,38.73084259,-9.1377086639,,,0,,,0,
1_6504,,JARDIM CONSTANTINO,,38.730819702,-9.1368579865,,,0,,,0,
1_8103,,JARDIM DA ESTRELA,,38.715564728,-9.1600112915,,,0,,,0,
1_8104,,JARDIM DA ESTRELA,,38.715774536,-9.1595811844,,,0,,,0,
1_6824,,JARDIM DAS AMOREIRAS,,38.721469879,-9.1563863754,,,0,,,0,
1_12002,,JARDIM DO ALTO DE SANTO AMARO,,38.704189301,-9.1855335236,,,0,,,0,
1_12003,,JARDIM DO ALTO DE SANTO AMARO,,38.704479218,-9.1848144531,,,0,,,0,
1_79101,,JARDIM JACARANDÁS,,38.778751373,-9.095246315,,,0,,,0,
1_79102,,JARDIM JACARANDÁS,,38.778709412,-9.0953559875,,,0,,,0,
1_12317,,LAB. QUÍMICA MILITAR,,38.777534485,-9.1131849289,,,0,,,0,
1_12318,,LAB. QUÍMICA MILITAR,,38.777580261,-9.1137094498,,,0,,,0,
1_10003,,LAPA,,38.711166382,-9.1584091187,,,0,,,0,
1_10004,,LAPA,,38.710983276,-9.1584758759,,,0,,,0,
1_12709,,LARANJEIRAS (METRO),,38.747562408,-9.170923233,,,0,,,0,
1_12710,,LARANJEIRAS (METRO),,38.747745514,-9.1712598801,,,0,,,0,
1_1012,,LARGO DA ANUNCIADA,,38.717845917,-9.1417798996,,,0,,,0,
1_13205,,LARGO DA PRINCESA,,38.694953918,-9.2154903412,,,0,,,0,
1_9419,,LARGO DAS NECESSIDADES,,38.707290649,-9.1715917587,,,0,,,0,
1_9420,,LARGO DAS NECESSIDADES,,38.707187653,-9.1714248657,,,0,,,0,
1_10507,,LARGO DO CALHARIZ,,38.710765839,-9.1458015442,,,0,,,0,
1_11621,,LARGO DO CASTELO,,38.791614532,-9.1474142075,,,0,,,0,
1_11622,,LARGO DO CASTELO,,38.791732788,-9.1473302841,,,0,,,0,
1_13807,,LARGO DO CONTADOR MOR,,38.71194458,-9.1309099197,,,0,,,0,
1_11115,,LARGO DO LEÃO,,38.73456955,-9.1373300552,,,0,,,0,
1_13824,,LARGO DO TERREIRINHO,,38.716114044,-9.133055687,,,0,,,0,
1_12623,,LARGO DOS BOMBEIROS,,38.779075623,-9.1110877991,,,0,,,0,
1_12624,,LARGO DOS BOMBEIROS,,38.77942276,-9.1109113693,,,0,,,0,
1_7408,,LARGO FREI HEITOR PINTO,,38.755077362,-9.1388378143,,,0,,,0,
1_7409,,LARGO FREI HEITOR PINTO,,38.754623413,-9.1385345459,,,0,,,0,
1_10503,,LARGO TRINDADE COELHO,,38.713180542,-9.1433343887,,,0,,,0,
1_10504,,LARGO TRINDADE COELHO,,38.712551117,-9.1432132721,,,0,,,0,
1_3918,,LARGO VITORINO DAMÁSIO,,38.707843781,-9.1536493301,,,0,,,0,
1_3919,,LARGO VITORINO DAMÁSIO,,38.707782745,-9.1535511017,,,0,,,0,
1_3922,,LARGO VITORINO DAMÁSIO,,38.707332611,-9.1544675827,,,0,,,0,
1_3925,,LARGO VITORINO DAMÁSIO,,38.707443237,-9.1544847488,,,0,,,0,
1_10518,,LG. ACADEMIA NACIONAL BELAS AR,,38.708072662,-9.140463829,,,0,,,0,
1_10521,,LG. ACADEMIA NACIONAL BELAS AR,,38.70803833,-9.1399011612,,,0,,,0,
1_10303,,LG. AJUDA (PALÁCIO),,38.707645416,-9.1963977814,,,0,,,0,
1_3603,,LG. BROMA,,38.742328644,-9.1169462204,,,0,,,0,
1_3604,,LG. BROMA,,38.742343903,-9.1167831421,,,0,,,0,
1_3601,,LG. CHELAS,,38.739830017,-9.1178388596,,,0,,,0,
1_3602,,LG. CHELAS,,38.739673615,-9.1176719666,,,0,,,0,
1_7410,,LG. FREI HEITOR PINTO,,38.755226135,-9.1391868591,,,0,,,0,
1_7411,,LG. FREI HEITOR PINTO,,38.754295349,-9.1388912201,,,0,,,0,
1_11116,,LG. LEÃO,,38.734729767,-9.1372203827,,,0,,,0,
1_12803,,LG. LUZ,,38.76002121,-9.1827535629,,,0,,,0,
1_12804,,LG. LUZ,,38.760246277,-9.1828832626,,,0,,,0,
1_5918,,LG. PAÇO,,38.773292542,-9.1720876694,,,0,,,0,
1_13811,,LG. PORTAS SOL,,38.712528229,-9.1306009293,,,0,,,0,
1_13812,,LG. PORTAS SOL,,38.712181091,-9.130408287,,,0,,,0,
1_13206,,LG. PRINCESA,,38.695056915,-9.2148580551,,,0,,,0,
1_13207,,LG. PRINCESA,,38.695503235,-9.2150945663,,,0,,,0,
1_13803,,LIMOEIRO,,38.710327148,-9.1316299438,,,0,,,0,
1_13804,,LIMOEIRO,,38.710166931,-9.1323404312,,,0,,,0,
1_94903,,LINDA A VELHA,,38.715831757,-9.2356548309,,,0,,,0,
1_94904,,LINDA A VELHA,,38.716022491,-9.235666275,,,0,,,0,
1_8839,,LISBOA CLUBE TÉNIS,,38.730480194,-9.2038784027,,,0,,,0,
1_8840,,LISBOA CLUBE TÉNIS,,38.730548859,-9.2037563324,,,0,,,0,
1_11306,,LNEC,,38.758136749,-9.1416549683,,,0,,,0,
1_11303,,LNEC,,38.758312225,-9.1403570175,,,0,,,0,
1_11312,,LNEC,,38.758026123,-9.1413116455,,,0,,,0,
1_5906,,LUMIAR,,38.772640228,-9.1611757278,,,0,,,0,
1_5907,,LUMIAR,,38.773574829,-9.1616411209,,,0,,,0,
1_5940,,LUMIAR,,38.772449493,-9.1610651016,,,0,,,0,
1_5938,,LUMIAR,,38.770263672,-9.161280632,,,0,,,0,
1_5915,,LUMIAR - AV. PADRE CRUZ,,38.774497986,-9.1637878418,,,0,,,0,
1_5912,,LUMIAR - AV. PADRE CRUZ,,38.774715424,-9.1631412506,,,0,,,0,
1_5905,,LUMIAR (ESTR. TORRE),,38.773464203,-9.1612606049,,,0,,,0,
1_5950,,LUMIAR (ESTR. TORRE),,38.773944855,-9.1614866257,,,0,,,0,
1_8707,,LUNETA DOS QUARTÉIS,,38.731472015,-9.1976585388,,,0,,,0,
1_8708,,LUNETA DOS QUARTÉIS,,38.731456757,-9.1974630356,,,0,,,0,
1_14110,,MAL PENTEADA,,38.768936157,-9.1954946518,,,0,,,0,
1_14111,,MAL PENTEADA,,38.768802643,-9.195810318,,,0,,,0,
1_8313,,MANUTENÇÃO MILITAR,,38.733009338,-9.1043071747,,,0,,,0,
1_8314,,MANUTENÇÃO MILITAR,,38.732860565,-9.1046619415,,,0,,,0,
1_1225,,MARQUÊS DE POMBAL,,38.726303101,-9.1492652893,,,0,,,0,
1_1228,,MARQUÊS DE POMBAL,,38.727375031,-9.1490354538,,,0,,,0,
1_1229,,MARQUÊS DE POMBAL,,38.725662231,-9.1490459442,,,0,,,0,
1_1220,,MARQUÊS DE POMBAL,,38.72587204,-9.1492414474,,,0,,,0,
1_1201,,MARQUÊS DE POMBAL,,38.726215363,-9.1474113464,,,0,,,0,
1_1202,,MARQUÊS DE POMBAL,,38.725566864,-9.1486167908,,,0,,,0,
1_1203,,MARQUÊS DE POMBAL,,38.726623535,-9.1495199203,,,0,,,0,
1_1205,,MARQUÊS DE POMBAL,,38.726634979,-9.1490926743,,,0,,,0,
1_1206,,MARQUÊS DE POMBAL,,38.726623535,-9.149520874,,,0,,,0,
1_1207,,MARQUÊS DE POMBAL,,38.724124908,-9.1506443024,,,0,,,0,
1_1208,,MARQUÊS DE POMBAL,,38.723892212,-9.1509809494,,,0,,,0,
1_1209,,MARQUÊS DE POMBAL,,38.725307465,-9.1519069672,,,0,,,0,
1_1211,,MARQUÊS DE POMBAL,,38.722915649,-9.149263382,,,0,,,0,
1_1212,,MARQUÊS DE POMBAL,,38.724658966,-9.1508560181,,,0,,,0,
1_1213,,MARQUÊS DE POMBAL,,38.726127625,-9.1503982544,,,0,,,0,
1_1214,,MARQUÊS DE POMBAL,,38.724014282,-9.1508989334,,,0,,,0,
1_1215,,MARQUÊS DE POMBAL,,38.724994659,-9.152671814,,,0,,,0,
1_1221,,MARQUÊS DE POMBAL,,38.725429535,-9.1514139175,,,0,,,0,
1_815,,MARTIM MONIZ,,38.715019226,-9.1374673843,,,0,,,0,
1_816,,MARTIM MONIZ,,38.715499878,-9.1360397339,,,0,,,0,
1_818,,MARTIM MONIZ,,38.71603775,-9.1357097626,,,0,,,0,
1_801,,MARTIM MONIZ,,38.715270996,-9.13601017,,,0,,,0,
1_805,,MARTIM MONIZ,,38.714958191,-9.1366195679,,,0,,,0,
1_807,,MARTIM MONIZ,,38.714832306,-9.1376152039,,,0,,,0,
1_819,,MARTIM MONIZ,,38.715297699,-9.1361341476,,,0,,,0,
1_12522,,MARVILA,,38.740871429,-9.1056690216,,,0,,,0,
1_2203,,MATINHA,,38.748126984,-9.0969572067,,,0,,,0,
1_2204,,MATINHA,,38.747829437,-9.0968732834,,,0,,,0,
1_9301,,MEIA LARANJA,,38.715816498,-9.1727819443,,,0,,,0,
1_9302,,MEIA LARANJA,,38.716396332,-9.1724290848,,,0,,,0,
1_2129,,MERCADO DE SANTA CLARA,,38.715381622,-9.1254243851,,,0,,,0,
1_2130,,MERCADO DE SANTA CLARA,,38.71566391,-9.1258211136,,,0,,,0,
1_12213,,MERCADO ENCARNAÇÃO,,38.776676178,-9.1200428009,,,0,,,0,
1_10720,,MERCADO S. DOMINGOS BENFICA,,38.744159698,-9.1801080704,,,0,,,0,
1_8321,,MERCADO XABREGAS,,38.727783203,-9.1146812439,,,0,,,0,
1_8322,,MERCADO XABREGAS,,38.728111267,-9.1149282455,,,0,,,0,
1_13805,,MIRADOURO STA. LUZIA,,38.711582184,-9.1305761337,,,0,,,0,
1_13816,,MIRADOURO STA. LUZIA,,38.711315155,-9.1307144165,,,0,,,0,
1_14309,,MIRAFLORES,,38.71333313,-9.2252540588,,,0,,,0,
1_14310,,MIRAFLORES,,38.713310242,-9.2250585556,,,0,,,0,
1_14301,,MIRAFLORES,,38.713882446,-9.2251033783,,,0,,,0,
1_14307,,MIRAFLORES NORTE,,38.71414566,-9.2272195816,,,0,,,0,
1_14308,,MIRAFLORES NORTE,,38.714244843,-9.2263059616,,,0,,,0,
1_8705,,MONSANTO,,38.732765198,-9.1896476746,,,0,,,0,
1_8706,,MONSANTO,,38.732566833,-9.1897630692,,,0,,,0,
1_21303,,MONTES CLAROS,,38.717739105,-9.1995620728,,,0,,,0,
1_21304,,MONTES CLAROS,,38.717838287,-9.1993074417,,,0,,,0,
1_7917,,MOSCAVIDE,,38.773612976,-9.1047506332,,,0,,,0,
1_7911,,MOSCAVIDE,,38.7746315,-9.1009187698,,,0,,,0,
1_7908,,MOSCAVIDE,,38.775043488,-9.1022396088,,,0,,,0,
1_7902,,MOSCAVIDE CENTRO,,38.779907227,-9.1024827957,,,0,,,0,
1_7903,,MOSCAVIDE CENTRO,,38.779541016,-9.102514267,,,0,,,0,
1_7904,,MOSCAVIDE CENTRO,,38.779636383,-9.1044645309,,,0,,,0,
1_9609,,MOSTEIRO DOS JERÓNIMOS,,38.697257996,-9.203546524,,,0,,,0,
1_9603,,MOSTEIRO DOS JERÓNIMOS,,38.697250366,-9.203669548,,,0,,,0,
1_9611,,MOSTEIRO DOS JERÓNIMOS,,38.697948456,-9.2045192719,,,0,,,0,
1_9604,,MOSTEIRO JERÓNIMOS,,38.697727203,-9.2045135498,,,0,,,0,
1_9610,,MOSTEIRO JERÓNIMOS,,38.697299957,-9.2049427032,,,0,,,0,
1_1216,,MQ. POMBAL - R. ALEXANDRE HERC,,38.722667694,-9.1493835449,,,0,,,0,
1_4105,,MUSEU DO ULTRAMAR,,38.700927734,-9.2002296448,,,0,,,0,
1_4106,,MUSEU DO ULTRAMAR,,38.701202393,-9.1998567581,,,0,,,0,
1_2119,,MUSEU MILITAR,,38.71244812,-9.1248378754,,,0,,,0,
1_2120,,MUSEU MILITAR,,38.712352753,-9.1249008179,,,0,,,0,
1_2403,,OCEANÁRIO DE LISBOA,,38.761089325,-9.0964412689,,,0,,,0,
1_2404,,OCEANÁRIO DE LISBOA,,38.76127243,-9.0961294174,,,0,,,0,
1_8921,,OLAIAS,,38.738994598,-9.1232681274,,,0,,,0,
1_9006,,OLAIAS - AV. AFONSO COSTA,,38.738349915,-9.1272506714,,,0,,,0,
1_8912,,OLAIAS (PISCINA),,38.739906311,-9.1240739822,,,0,,,0,
1_8913,,OLAIAS (PISCINA),,38.739887238,-9.1236963272,,,0,,,0,
1_8437,,OLIVAIS CENTRO CÍVICO,,38.763248444,-9.1173610687,,,0,,,0,
1_8433,,OLIVAIS CENTRO CÍVICO,,38.762168884,-9.1166152954,,,0,,,0,
1_12315,,OLIVAIS NORTE,,38.776264191,-9.1110181808,,,0,,,0,
1_12316,,OLIVAIS NORTE,,38.775848389,-9.1110811234,,,0,,,0,
1_12301,,OLIVAIS NORTE,,38.775371552,-9.1107673645,,,0,,,0,
1_12302,,OLIVAIS NORTE,,38.77507782,-9.111413002,,,0,,,0,
1_12309,,OLIVAIS NORTE,,38.774421692,-9.1111698151,,,0,,,0,
1_12310,,OLIVAIS NORTE,,38.774242401,-9.1112613678,,,0,,,0,
1_8403,,OLIVAIS SUL,,38.764278412,-9.1188030243,,,0,,,0,
1_8404,,OLIVAIS SUL,,38.764045715,-9.1190319061,,,0,,,0,
1_7806,,OLIVAIS VELHO,,38.770362854,-9.1047992706,,,0,,,0,
1_7803,,OLIVAIS VELHO,,38.770042419,-9.1043243408,,,0,,,0,
1_7218,,OLIVAL BASTO,,38.789657593,-9.1684999466,,,0,,,0,
1_18601,,OUTURELA,,38.724060059,-9.2275314331,,,0,,,0,
1_18602,,OUTURELA,,38.724250793,-9.2284822464,,,0,,,0,
1_18704,,OUTURELA - ESCOLA,,38.722366333,-9.2245779037,,,0,,,0,
1_18705,,OUTURELA - ESCOLA,,38.722309113,-9.2246236801,,,0,,,0,
1_18603,,OUTURELA (Bº 18 DE MAIO),,38.724838257,-9.2269296646,,,0,,,0,
1_18604,,OUTURELA (PAV. CARLOS QUEIROZ),,38.723808289,-9.2261533737,,,0,,,0,
1_18605,,OUTURELA (PAV. CARLOS QUEIROZ),,38.723651886,-9.2260026932,,,0,,,0,
1_5949,,PAÇO LUMIAR,,38.771167755,-9.1737279892,,,0,,,0,
1_5953,,PAÇO LUMIAR,,38.768974304,-9.1728162766,,,0,,,0,
1_5954,,PAÇO LUMIAR,,38.76940155,-9.173617363,,,0,,,0,
1_5955,,PAÇO LUMIAR,,38.770000458,-9.173541069,,,0,,,0,
1_9201,,PAÇO RAINHA,,38.723625183,-9.1377458572,,,0,,,0,
1_9202,,PAÇO RAINHA,,38.723392487,-9.1377038956,,,0,,,0,
1_4217,,PALÁCIO ANJOS,,38.699237823,-9.230711937,,,0,,,0,
1_10304,,PALÁCIO DA AJUDA,,38.707561493,-9.1961631775,,,0,,,0,
1_6117,,PALÁCIO DA JUSTIÇA,,38.730648041,-9.1570129395,,,0,,,0,
1_6118,,PALÁCIO DA JUSTIÇA,,38.731140137,-9.156085968,,,0,,,0,
1_12509,,PALÁCIO DA MITRA,,38.739681244,-9.1028690338,,,0,,,0,
1_12510,,PALÁCIO DA MITRA,,38.739181519,-9.1031265259,,,0,,,0,
1_6712,,PALÁCIO DE SÃO BENTO,,38.712207794,-9.152759552,,,0,,,0,
1_6703,,PALÁCIO DE SÃO BENTO (JARDIM),,38.71339035,-9.1531581879,,,0,,,0,
1_6704,,PALÁCIO DE SÃO BENTO (JARDIM),,38.713485718,-9.1533279419,,,0,,,0,
1_10721,,PALÁCIO MARQUÊS DE FRONTEIRA,,38.740406036,-9.1801347733,,,0,,,0,
1_10722,,PALÁCIO MARQUÊS DE FRONTEIRA,,38.740356445,-9.1807823181,,,0,,,0,
1_14717,,PARQUE DA BELA VISTA,,38.750274658,-9.1238899231,,,0,,,0,
1_14714,,PARQUE DA BELA VISTA,,38.750583649,-9.123916626,,,0,,,0,
1_2409,,PARQUE DAS NAÇÕES SUL,,38.755317688,-9.0967969894,,,0,,,0,
1_2410,,PARQUE DAS NAÇÕES SUL,,38.755027771,-9.0966100693,,,0,,,0,
1_14008,,PARQUE DE CAMPISMO,,38.728042603,-9.209359169,,,0,,,0,
1_14005,,PARQUE DE CAMPISMO,,38.727729797,-9.2090358734,,,0,,,0,
1_14006,,PARQUE DE CAMPISMO,,38.727924347,-9.2092990875,,,0,,,0,
1_14007,,PARQUE DE CAMPISMO - RECEPÇÃO,,38.724552155,-9.2080163956,,,0,,,0,
1_21305,,PARQUE INFANTIL,,38.719547272,-9.1851034164,,,0,,,0,
1_21306,,PARQUE INFANTIL,,38.719497681,-9.185218811,,,0,,,0,
1_21309,,PARQUE INFANTIL ALVITO,,38.719871521,-9.1853437424,,,0,,,0,
1_79122,,PARQUE NAÇÕES NORTE,,38.793773651,-9.0975437164,,,0,,,0,
1_79109,,PARQUE NAÇÕES NORTE,,38.793479919,-9.0977697372,,,0,,,0,
1_10726,,PARQUE RECREATIVO DA SERAFINA,,38.735858917,-9.1796531677,,,0,,,0,
1_2411,,PASSEIO ADAMASTOR,,38.757938385,-9.0963153839,,,0,,,0,
1_2412,,PASSEIO ADAMASTOR,,38.757736206,-9.0966091156,,,0,,,0,
1_79115,,PASSEIO GARÇAS,,38.781902313,-9.0945730209,,,0,,,0,
1_79119,,PASSEIO HERÓIS MAR,,38.788249969,-9.0979604721,,,0,,,0,
1_79116,,PASSEIO TEJO,,38.785850525,-9.0967988968,,,0,,,0,
1_79117,,PASSEIO TEJO,,38.785968781,-9.0964803696,,,0,,,0,
1_12013,,PAVILHÃO DA AJUDA,,38.70602417,-9.1822462082,,,0,,,0,
1_12014,,PAVILHÃO DA AJUDA,,38.70608902,-9.1828927994,,,0,,,0,
1_6030,,PÇ D. ANTÓNIO RIBEIRO,,38.780181885,-9.1514778137,,,0,,,0,
1_6029,,PÇ D. ANTÓNIO RIBEIRO,,38.784568787,-9.1514997482,,,0,,,0,
1_7511,,PÇ. AEROPORTO,,38.762168884,-9.1294765472,,,0,,,0,
1_7505,,PÇ. AEROPORTO,,38.762371063,-9.1294536591,,,0,,,0,
1_7501,,PÇ. AEROPORTO,,38.762401581,-9.1300859451,,,0,,,0,
1_7502,,PÇ. AEROPORTO,,38.762363434,-9.1304979324,,,0,,,0,
1_7513,,PÇ. AEROPORTO,,38.762248993,-9.1302556992,,,0,,,0,
1_7514,,PÇ. AEROPORTO,,38.762107849,-9.1298007965,,,0,,,0,
1_7515,,PÇ. AEROPORTO,,38.762481689,-9.1303720474,,,0,,,0,
1_7516,,PÇ. AEROPORTO,,38.762779236,-9.1290073395,,,0,,,0,
1_7517,,PÇ. AEROPORTO,,38.763214111,-9.1286020279,,,0,,,0,
1_3015,,PÇ. ÁGUAS LIVRES,,38.746833801,-9.2162179947,,,0,,,0,
1_105,,PÇ. ALVALADE,,38.753471375,-9.142575264,,,0,,,0,
1_108,,PÇ. ALVALADE,,38.753417969,-9.1432762146,,,0,,,0,
1_106,,PÇ. ALVALADE (ESC. EUGÉNIO SAN,,38.754734039,-9.144657135,,,0,,,0,
1_103,,PÇ. ALVALADE (ESC. EUGÉNIO SAN,,38.754219055,-9.1444196701,,,0,,,0,
1_104,,PÇ. ALVALADE (ESC. EUGÉNIO SAN,,38.754051208,-9.1446399689,,,0,,,0,
1_9101,,PÇ. ANTÓNIO SARDINHA,,38.725891113,-9.1300621033,,,0,,,0,
1_9102,,PÇ. ANTÓNIO SARDINHA,,38.725971222,-9.1299438477,,,0,,,0,
1_507,,PÇ. CHILE,,38.734424591,-9.1350793839,,,0,,,0,
1_509,,PÇ. CHILE,,38.733345032,-9.1327934265,,,0,,,0,
1_521,,PÇ. CHILE,,38.734523773,-9.1350221634,,,0,,,0,
1_522,,PÇ. CHILE,,38.733142853,-9.1324939728,,,0,,,0,
1_503,,PÇ. CHILE,,38.733257294,-9.1324777603,,,0,,,0,
1_504,,PÇ. CHILE,,38.733226776,-9.1327981949,,,0,,,0,
1_505,,PÇ. CHILE / AV. ALMIRANTE REIS,,38.732666016,-9.1342077255,,,0,,,0,
1_506,,PÇ. CHILE / AV. ALMIRANTE REIS,,38.732460022,-9.1344013214,,,0,,,0,
1_5501,,PÇ. COMÉRCIO,,38.708328247,-9.136507988,,,0,,,0,
1_404,,PÇ. JOÃO RIO,,38.740512848,-9.1336374283,,,0,,,0,
1_411,,PÇ. JOÃO RIO,,38.740196228,-9.133433342,,,0,,,0,
1_6612,,PÇ. JOSÉ FONTANA,,38.728748322,-9.1445550919,,,0,,,0,
1_6405,,PÇ. LONDRES,,38.742172241,-9.1379899979,,,0,,,0,
1_6408,,PÇ. LONDRES,,38.740322113,-9.1374483109,,,0,,,0,
1_10512,,PÇ. LUIS CAMÕES,,38.710788727,-9.1435947418,,,0,,,0,
1_10513,,PÇ. LUIS CAMÕES,,38.710487366,-9.1438159943,,,0,,,0,
1_603,,PÇ. NOVAS NAÇÕES,,38.726348877,-9.1327037811,,,0,,,0,
1_7003,,PÇ. PAIVA COUCEIRO,,38.730415344,-9.1278009415,,,0,,,0,
1_7004,,PÇ. PAIVA COUCEIRO,,38.731189728,-9.1279611588,,,0,,,0,
1_7014,,PÇ. PAIVA COUCEIRO,,38.730545044,-9.12748909,,,0,,,0,
1_7015,,PÇ. PAIVA COUCEIRO,,38.730552673,-9.1271018982,,,0,,,0,
1_7010,,PÇ. PAIVA COUCEIRO,,38.731365204,-9.1270942688,,,0,,,0,
1_7011,,PÇ. PAIVA COUCEIRO / R. MORAIS,,38.73210907,-9.1282949448,,,0,,,0,
1_79126,,PÇ. REPÚBLICA,,38.796318054,-9.1042613983,,,0,,,0,
1_8914,,PÇ. SÓCRATES COSTA,,38.735046387,-9.1218261719,,,0,,,0,
1_13203,,PEDROUÇOS,,38.696033478,-9.2195615768,,,0,,,0,
1_13204,,PEDROUÇOS,,38.695922852,-9.2188472748,,,0,,,0,
1_7008,,PENHA DE FRANÇA,,38.72851944,-9.1309528351,,,0,,,0,
1_7005,,PENHA FRANÇA,,38.72851944,-9.1308355331,,,0,,,0,
1_8909,,PICHELEIRA - OLAIAS,,38.738983154,-9.1233968735,,,0,,,0,
1_8907,,PICHELEIRA - R. DR. FARIA VASC,,38.738853455,-9.120349884,,,0,,,0,
1_8919,,PICHELEIRA (QTA. LAVRADO),,38.732700348,-9.1222162247,,,0,,,0,
1_8901,,PICHELEIRA (QTA. LAVRADO),,38.732654572,-9.1214790344,,,0,,,0,
1_1703,,PICOAS,,38.730499268,-9.1467056274,,,0,,,0,
1_1704,,PICOAS,,38.730129242,-9.1472148895,,,0,,,0,
1_1707,,PICOAS,,38.730125427,-9.1454381943,,,0,,,0,
1_1713,,PICOAS,,38.730224609,-9.1468753815,,,0,,,0,
1_1714,,PICOAS,,38.730369568,-9.1470661163,,,0,,,0,
1_8838,,PINA MANIQUE,,38.736484528,-9.2016706467,,,0,,,0,
1_8826,,PINA MANIQUE,,38.735626221,-9.203037262,,,0,,,0,
1_8827,,PINA MANIQUE,,38.735752106,-9.2034788132,,,0,,,0,
1_7713,,PISCINA DOS OLIVAIS,,38.77003479,-9.1089963913,,,0,,,0,
1_7714,,PISCINA DOS OLIVAIS,,38.769142151,-9.1099004745,,,0,,,0,
1_7705,,PISCINA DOS OLIVAIS,,38.769538879,-9.1122608185,,,0,,,0,
1_7706,,PISCINA DOS OLIVAIS,,38.769493103,-9.1129846573,,,0,,,0,
1_7707,,PISCINA DOS OLIVAIS,,38.768600464,-9.1149015427,,,0,,,0,
1_7708,,PISCINA DOS OLIVAIS,,38.768695831,-9.1143903732,,,0,,,0,
1_11619,,PISCINA MUNICIPAL AMEIXOEIRA,,38.785877228,-9.1596908569,,,0,,,0,
1_12511,,POÇO DO BISPO,,38.742347717,-9.102104187,,,0,,,0,
1_12512,,POÇO DO BISPO,,38.742454529,-9.1024446487,,,0,,,0,
1_12502,,POÇO DO BISPO,,38.742153168,-9.1022033691,,,0,,,0,
1_10316,,PÓLO UNIVERSITÁRIO - ALAMEDA,,38.711566925,-9.1953735352,,,0,,,0,
1_10317,,PÓLO UNIVERSITÁRIO - ALAMEDA,,38.711490631,-9.1958332062,,,0,,,0,
1_12908,,PÓLO UNIVERSITÁRIO AJUDA - EST,,38.7133255,-9.2008724213,,,0,,,0,
1_10315,,PÓLO UNIVERSITÁRIO DA AJUDA,,38.713932037,-9.1969766617,,,0,,,0,
1_9809,,PONTE DE XABREGAS,,38.724742889,-9.1115522385,,,0,,,0,
1_8301,,PONTE XABREGAS,,38.726272583,-9.1118679047,,,0,,,0,
1_8302,,PONTE XABREGAS,,38.726097107,-9.1123313904,,,0,,,0,
1_13905,,PONTINHA,,38.76442337,-9.1998100281,,,0,,,0,
1_13906,,PONTINHA,,38.766040802,-9.1981801987,,,0,,,0,
1_13908,,PONTINHA,,38.76499176,-9.1991863251,,,0,,,0,
1_13909,,PONTINHA,,38.76512146,-9.198846817,,,0,,,0,
1_13910,,PONTINHA,,38.765964508,-9.1988830566,,,0,,,0,
1_13911,,PONTINHA (METRO),,38.763198853,-9.1978158951,,,0,,,0,
1_13912,,PONTINHA (METRO),,38.76398468,-9.1965923309,,,0,,,0,
1_13913,,PONTINHA (METRO),,38.762271881,-9.1973056793,,,0,,,0,
1_13907,,PONTINHA (METRO),,38.760593414,-9.196146965,,,0,,,0,
1_13904,,PONTINHA (METRO),,38.761817932,-9.1968822479,,,0,,,0,
1_13901,,PONTINHA CENTRO,,38.766780853,-9.2022695541,,,0,,,0,
1_14601,,PORTAGEM,,38.673812866,-9.1740045547,,,0,,,0,
1_14602,,PORTAGEM,,38.674282074,-9.1733236313,,,0,,,0,
1_11006,,PORTAS BENFICA,,38.753414154,-9.2084989548,,,0,,,0,
1_11001,,PORTAS BENFICA,,38.752708435,-9.2087812424,,,0,,,0,
1_11007,,PORTAS DE BENFICA,,38.752765656,-9.2095479965,,,0,,,0,
1_18706,,PORTAS DE QUELUZ,,38.723625183,-9.2154798508,,,0,,,0,
1_18707,,PORTAS DE QUELUZ,,38.724517822,-9.2140522003,,,0,,,0,
1_18702,,PORTELA,,38.721279144,-9.2213058472,,,0,,,0,
1_18703,,PORTELA,,38.721176147,-9.2213258743,,,0,,,0,
1_12627,,PORTELA - AVENIDA DA REPÚBLICA,,38.783939362,-9.109828949,,,0,,,0,
1_12607,,PORTELA - AVENIDA DA REPÚBLICA,,38.783538818,-9.1156196594,,,0,,,0,
1_12608,,PORTELA - AVENIDA DA REPÚBLICA,,38.783611298,-9.1162691116,,,0,,,0,
1_12609,,PORTELA - CENTRO COMERCIAL,,38.783691406,-9.112203598,,,0,,,0,
1_12617,,PORTELA - RUA DOS ESCRITORES,,38.782440186,-9.1083812714,,,0,,,0,
1_12618,,PORTELA - SEMINÁRIO,,38.781333923,-9.1071739197,,,0,,,0,
1_12619,,PORTELA - SEMINÁRIO,,38.781219482,-9.1074886322,,,0,,,0,
1_11319,,POTE DE ÁGUA,,38.759433746,-9.1358308792,,,0,,,0,
1_11316,,POTE DE ÁGUA,,38.759117126,-9.1371421814,,,0,,,0,
1_11308,,POTE DE ÁGUA,,38.759464264,-9.137137413,,,0,,,0,
1_11305,,POTE DE ÁGUA,,38.75963974,-9.1364793777,,,0,,,0,
1_14725,,PQ. BELA VISTA,,38.751041412,-9.1248054504,,,0,,,0,
1_14726,,PQ. BELA VISTA,,38.751064301,-9.1245546341,,,0,,,0,
1_10207,,PRAÇA DA ARMADA,,38.704975128,-9.170296669,,,0,,,0,
1_10208,,PRAÇA DA ARMADA,,38.705295563,-9.1706724167,,,0,,,0,
1_905,,PRAÇA DA FIGUEIRA,,38.713951111,-9.1378154755,,,0,,,0,
1_906,,PRAÇA DA FIGUEIRA,,38.713741302,-9.1373558044,,,0,,,0,
1_917,,PRAÇA DA FIGUEIRA,,38.713394165,-9.1372556686,,,0,,,0,
1_910,,PRAÇA DA FIGUEIRA,,38.713626862,-9.1381406784,,,0,,,0,
1_912,,PRAÇA DA FIGUEIRA,,38.713912964,-9.1380195618,,,0,,,0,
1_3014,,PRAÇA DAS ÁGUAS LIVRES,,38.746940613,-9.2165641785,,,0,,,0,
1_7720,,PRAÇA DAS CASAS NOVAS,,38.772556305,-9.11369133,,,0,,,0,
1_7721,,PRAÇA DAS CASAS NOVAS,,38.772918701,-9.1131362915,,,0,,,0,
1_6713,,PRAÇA DAS FLORES,,38.7149086,-9.1514186859,,,0,,,0,
1_6714,,PRAÇA DAS FLORES,,38.7149086,-9.1515617371,,,0,,,0,
1_1508,,PRAÇA DE ESPANHA,,38.738048553,-9.1585254669,,,0,,,0,
1_1505,,PRAÇA DE ESPANHA,,38.738090515,-9.1598463058,,,0,,,0,
1_1506,,PRAÇA DE ESPANHA,,38.737895966,-9.1584310532,,,0,,,0,
1_1503,,PRAÇA DE ESPANHA-AV. DE BERNA,,38.738739014,-9.1540393829,,,0,,,0,
1_1504,,PRAÇA DE ESPANHA-AV. DE BERNA,,38.737789154,-9.1555480957,,,0,,,0,
1_6403,,PRAÇA DE LONDRES,,38.740592957,-9.137556076,,,0,,,0,
1_5502,,PRAÇA DO COMÉRCIO,,38.708999634,-9.1353254318,,,0,,,0,
1_5504,,PRAÇA DO COMÉRCIO,,38.707942963,-9.1385984421,,,0,,,0,
1_5508,,PRAÇA DO COMÉRCIO,,38.708370209,-9.1377391815,,,0,,,0,
1_5512,,PRAÇA DO COMÉRCIO,,38.708244324,-9.1364784241,,,0,,,0,
1_5515,,PRAÇA DO COMÉRCIO,,38.708099365,-9.1370992661,,,0,,,0,
1_5519,,PRAÇA DO COMÉRCIO,,38.709674835,-9.1363840103,,,0,,,0,
1_12311,,PRAÇA DO NORTE - MERCADO,,38.776733398,-9.117893219,,,0,,,0,
1_12312,,PRAÇA DO NORTE - MERCADO,,38.776298523,-9.1180095673,,,0,,,0,
1_3705,,PRAÇA DOUTOR FERNANDO AMADO,,38.746555328,-9.1128101349,,,0,,,0,
1_3708,,PRAÇA DOUTOR FERNANDO AMADO,,38.746341705,-9.1129789352,,,0,,,0,
1_3706,,PRAÇA EDUARDO MONDLANE,,38.74413681,-9.1136856079,,,0,,,0,
1_3703,,PRAÇA EDUARDO MONDLANE,,38.74446106,-9.1132316589,,,0,,,0,
1_1709,,PRAÇA JOSÉ FONTANA,,38.730743408,-9.1437673569,,,0,,,0,
1_1710,,PRAÇA JOSÉ FONTANA,,38.729530334,-9.1435651779,,,0,,,0,
1_1712,,PRAÇA JOSÉ FONTANA,,38.729877472,-9.143497467,,,0,,,0,
1_7811,,PRAÇA JOSÉ QUEIRÓS,,38.773017883,-9.105096817,,,0,,,0,
1_7812,,PRAÇA JOSÉ QUEIRÓS,,38.773792267,-9.10476017,,,0,,,0,
1_7804,,PRAÇA JOSÉ QUEIRÓS,,38.774238586,-9.1062431335,,,0,,,0,
1_7807,,PRAÇA JOSÉ QUEIRÓS,,38.773963928,-9.1047792435,,,0,,,0,
1_7810,,PRAÇA JOSÉ QUEIRÓS,,38.774425507,-9.1060361862,,,0,,,0,
1_10501,,PRAÇA LUÍS DE CAMÕES,,38.710956573,-9.1429042816,,,0,,,0,
1_10502,,PRAÇA LUÍS DE CAMÕES,,38.709941864,-9.1431560516,,,0,,,0,
1_3010,,PRAÇA MARQUÊS DAS MINAS,,38.744098663,-9.2201938629,,,0,,,0,
1_3011,,PRAÇA MARQUÊS DAS MINAS,,38.743793488,-9.2202072144,,,0,,,0,
1_10603,,PRÍNCIPE REAL,,38.715713501,-9.1477985382,,,0,,,0,
1_10605,,PRÍNCIPE REAL,,38.716571808,-9.1481103897,,,0,,,0,
1_10606,,PRÍNCIPE REAL,,38.716655731,-9.1485157013,,,0,,,0,
1_10609,,PRÍNCIPE REAL,,38.716510773,-9.1481800079,,,0,,,0,
1_16313,,PRIOR VELHO,,38.792743683,-9.1216030121,,,0,,,0,
1_16315,,PRIOR VELHO,,38.790195465,-9.12312603,,,0,,,0,
1_16309,,PRIOR VELHO,,38.790107727,-9.1238861084,,,0,,,0,
1_16310,,PRIOR VELHO,,38.790214539,-9.1243543625,,,0,,,0,
1_10830,,PUPILOS DO EXÉRCITO,,38.746807098,-9.1846170425,,,0,,,0,
1_10829,,PUPILOS EXÉRCITO,,38.746696472,-9.1845941544,,,0,,,0,
1_7809,,QTA CONDE DOS ARCOS,,38.77053833,-9.108669281,,,0,,,0,
1_16307,,QTA DA FRANCELHA DE BAIXO,,38.788410187,-9.1237373352,,,0,,,0,
1_16308,,QTA DA FRANCELHA DE BAIXO,,38.78830719,-9.1238880157,,,0,,,0,
1_16305,,QTA DA FRANCELHA DE CIMA,,38.785865784,-9.12383461,,,0,,,0,
1_16306,,QTA DA FRANCELHA DE CIMA,,38.78609848,-9.1239204407,,,0,,,0,
1_10916,,QTA DA GRANJA,,38.754608154,-9.1960773468,,,0,,,0,
1_11609,,QTA DA TORRINHA,,38.790885925,-9.1573047638,,,0,,,0,
1_11614,,QTA DA TORRINHA,,38.790607452,-9.1573467255,,,0,,,0,
1_3309,,QTA DAS FREIRAS,,38.743946075,-9.1547756195,,,0,,,0,
1_7916,,QTA DAS LARANJEIRAS,,38.771911621,-9.1014871597,,,0,,,0,
1_8803,,QTA DAS TORRES,,38.733219147,-9.2078027725,,,0,,,0,
1_8804,,QTA DAS TORRES,,38.733623505,-9.2076654434,,,0,,,0,
1_7304,,QTA DE SANTO ANTÓNIO,,38.751899719,-9.130818367,,,0,,,0,
1_7307,,QTA DE SANTO ANTÓNIO,,38.752601624,-9.1304597855,,,0,,,0,
1_9411,,QTA DO CABRINHA - AV. DE CEUTA,,38.713104248,-9.1753940582,,,0,,,0,
1_9412,,QTA DO CABRINHA - AV. DE CEUTA,,38.712413788,-9.1754627228,,,0,,,0,
1_12603,,QTA DO MORGADO,,38.779376984,-9.1201324463,,,0,,,0,
1_12604,,QTA DO MORGADO,,38.779132843,-9.1201715469,,,0,,,0,
1_7507,,QTA DO NARIGÃO,,38.757915497,-9.1299314499,,,0,,,0,
1_7512,,QTA DO NARIGÃO,,38.75825119,-9.1301870346,,,0,,,0,
1_11616,,QTA DOS BALSARES,,38.793140411,-9.1531171799,,,0,,,0,
1_11611,,QTA DOS BALSARES,,38.793384552,-9.153137207,,,0,,,0,
1_50017,,QTA DOS BARROS,,38.755725861,-9.1682929993,,,0,,,0,
1_50020,,QTA DOS BARROS,,38.755737305,-9.1685991287,,,0,,,0,
1_9820,,QTA DOS PEIXINHOS,,38.722732544,-9.1214952469,,,0,,,0,
1_18131,,QTA GRANDE,,38.735664368,-9.2186908722,,,0,,,0,
1_18129,,QTA GRANDE (ALFRAGIDE),,38.735832214,-9.2187461853,,,0,,,0,
1_18105,,QTA GRANDE (ALFRAGIDE),,38.735321045,-9.218711853,,,0,,,0,
1_18108,,QTA GRANDE (ALFRAGIDE),,38.735378265,-9.2188434601,,,0,,,0,
1_7201,,QTA. ALCOUTINS,,38.779556274,-9.1721754074,,,0,,,0,
1_11610,,QTA. BALSARES,,38.794082642,-9.1520004272,,,0,,,0,
1_11605,,QTA. BALSARES,,38.793498993,-9.1520500183,,,0,,,0,
1_5903,,QTA. CONCHAS,,38.770343781,-9.1597099304,,,0,,,0,
1_5904,,QTA. CONCHAS,,38.770240784,-9.1598987579,,,0,,,0,
1_5830,,QTA. CONCHAS (METRO),,38.766780853,-9.1574172974,,,0,,,0,
1_10917,,QTA. GRANJA,,38.754302979,-9.195602417,,,0,,,0,
1_10911,,QTA. GRANJA - AV. URUGUAI,,38.752864838,-9.1968135834,,,0,,,0,
1_10912,,QTA. GRANJA - AV. URUGUAI,,38.753223419,-9.196346283,,,0,,,0,
1_12808,,QTA. INGLESINHOS,,38.763168335,-9.1805830002,,,0,,,0,
1_12834,,QTA. INGLESINHOS,,38.763309479,-9.1806097031,,,0,,,0,
1_9416,,QTA. JACINTO,,38.708118439,-9.1740198135,,,0,,,0,
1_7209,,QTA. LAVADEIRAS,,38.783779144,-9.1640634537,,,0,,,0,
1_7206,,QTA. LAVADEIRAS,,38.784332275,-9.1662082672,,,0,,,0,
1_8920,,QTA. LAVRADO,,38.734348297,-9.1251344681,,,0,,,0,
1_12801,,QTA. LUZ,,38.757274628,-9.1854114532,,,0,,,0,
1_12802,,QTA. LUZ,,38.757171631,-9.1856842041,,,0,,,0,
1_7215,,QTA. MOLEIRINHA,,38.784416199,-9.1610660553,,,0,,,0,
1_7216,,QTA. MOLEIRINHA,,38.784324646,-9.1613235474,,,0,,,0,
1_14109,,QTA. OLIVAL (C. TRIAGEM),,38.777042389,-9.174498558,,,0,,,0,
1_14117,,QTA. OLIVAL (C. TRIAGEM),,38.776943207,-9.1748380661,,,0,,,0,
1_83118,,QTA. OURIVES,,38.735340118,-9.1154441833,,,0,,,0,
1_6003,,QTA. PAILEPA,,38.787849426,-9.1459827423,,,0,,,0,
1_6010,,QTA. PAILEPA,,38.787883759,-9.1461668015,,,0,,,0,
1_9821,,QTA. PEIXINHOS,,38.723522186,-9.1217069626,,,0,,,0,
1_8003,,R. 4 INFANTARIA,,38.718269348,-9.1647844315,,,0,,,0,
1_8006,,R. 4 INFANTARIA,,38.720233917,-9.1654472351,,,0,,,0,
1_14701,,R. ADÃES BERMUDES,,38.75642395,-9.1206407547,,,0,,,0,
1_14702,,R. ADÃES BERMUDES,,38.756206512,-9.120716095,,,0,,,0,
1_12110,,R. ALCÂNTARA,,38.706207275,-9.1755571365,,,0,,,0,
1_1625,,R. ALCINA BASTOS,,38.741260529,-9.1759672165,,,0,,,0,
1_5909,,R. ALEXANDRE FERREIRA,,38.776382446,-9.1627454758,,,0,,,0,
1_12008,,R. ALIANÇA OPERÁRIA,,38.704410553,-9.1895933151,,,0,,,0,
1_11107,,R. ALVES REDOL,,38.737491608,-9.1406316757,,,0,,,0,
1_9427,,R. ALVITO,,38.707500458,-9.1751852036,,,0,,,0,
1_8516,,R. AMOREIRAS,,38.723342896,-9.1594142914,,,0,,,0,
1_8515,,R. AMOREIRAS,,38.723869324,-9.159620285,,,0,,,0,
1_9126,,R. ANGELINA VIDAL,,38.7228508,-9.1313199997,,,0,,,0,
1_9127,,R. ANGELINA VIDAL,,38.722309113,-9.1310691833,,,0,,,0,
1_13628,,R. ANTÓNIO ALÇADA BAPTISTA,,38.753913879,-9.1819162369,,,0,,,0,
1_8905,,R. AQUILES MACHADO,,38.738277435,-9.1247692108,,,0,,,0,
1_50031,,R. ARMINDO RODRIGUES,,38.76914978,-9.1670923233,,,0,,,0,
1_50032,,R. ARMINDO RODRIGUES,,38.768798828,-9.1674509048,,,0,,,0,
1_10828,,R. AUGUSTO PINA,,38.749645233,-9.1861982346,,,0,,,0,
1_8806,,R. AZEVINHO,,38.732463837,-9.2046689987,,,0,,,0,
1_7001,,R. BARÃO SABROSA,,38.734577179,-9.1287546158,,,0,,,0,
1_7002,,R. BARÃO SABROSA,,38.734981537,-9.1287841797,,,0,,,0,
1_9113,,R. BARTOLOMEU COSTA,,38.720561981,-9.1237707138,,,0,,,0,
1_3002,,R. BARTOLOMEU DIAS,,38.748039246,-9.2170791626,,,0,,,0,
1_3024,,R. Bartolomeu Dias,,38.748947144,-9.218380928,,,0,,,0,
1_6603,,R. BERNARDIM RIBEIRO,,38.725025177,-9.1440172195,,,0,,,0,
1_6604,,R. BERNARDIM RIBEIRO,,38.724990845,-9.1441841125,,,0,,,0,
1_13303,,R. BICA MARQUÊS,,38.70470047,-9.1986627579,,,0,,,0,
1_13304,,R. BICA MARQUÊS,,38.704761505,-9.198972702,,,0,,,0,
1_14901,,R. BOMBEIROS VOLUNTÁRIOS DAFUN,,38.700271606,-9.2468805313,,,0,,,0,
1_14902,,R. BOMBEIROS VOLUNTÁRIOS DAFUN,,38.7003479,-9.2469940186,,,0,,,0,
1_6707,,R. BORGES CARNEIRO / CÇ. ESTRE,,38.712265015,-9.156624794,,,0,,,0,
1_6708,,R. BORGES CARNEIRO / CÇ. ESTRE,,38.712291718,-9.1563396454,,,0,,,0,
1_8027,,R. CAMPO OURIQUE,,38.720676422,-9.1640081406,,,0,,,0,
1_6121,,R. CAMPOLIDE,,38.730335236,-9.1622419357,,,0,,,0,
1_6122,,R. CAMPOLIDE,,38.729320526,-9.1624422073,,,0,,,0,
1_6124,,R. CAMPOLIDE (ESCOLA),,38.732208252,-9.1627407074,,,0,,,0,
1_6123,,R. CAMPOLIDE (ESCOLA),,38.732261658,-9.1624336243,,,0,,,0,
1_8906,,R. CAPITÃO ROBY,,38.73797226,-9.1224365234,,,0,,,0,
1_89901,,R. CAPITÃO-MOR LOPES SEQUEIRA,,38.754428864,-9.1093559265,,,0,,,0,
1_89902,,R. CAPITÃO-MOR LOPES SEQUEIRA,,38.754390717,-9.1087598801,,,0,,,0,
1_9117,,R. CARDAL GRAÇA,,38.7202034,-9.1272926331,,,0,,,0,
1_2907,,R. CASQUILHA,,38.745952606,-9.2065143585,,,0,,,0,
1_2908,,R. CASQUILHA,,38.746261597,-9.2065086365,,,0,,,0,
1_9134,,R. CASTELO BRANCO SARAIVA,,38.726066589,-9.1255226135,,,0,,,0,
1_11707,,R. CASTELO BRANCO SARAIVA,,38.725765228,-9.122426033,,,0,,,0,
1_79118,,R. CHEN HE,,38.788860321,-9.0982198715,,,0,,,0,
1_16009,,R. CIDADE LUANDA,,38.790847778,-9.1443128586,,,0,,,0,
1_5604,,R. CONCEIÇÃO,,38.709667206,-9.1370477676,,,0,,,0,
1_5605,,R. CONCEIÇÃO,,38.70941925,-9.137717247,,,0,,,0,
1_10712,,R. CONDE ALMOSTER,,38.743133545,-9.1802368164,,,0,,,0,
1_6609,,R. CONDE REDONDO,,38.726543427,-9.1449785233,,,0,,,0,
1_6610,,R. CONDE REDONDO,,38.72661972,-9.1450910568,,,0,,,0,
1_13123,,R. CONS. MARTINS CARVALHO,,38.706428528,-9.2039070129,,,0,,,0,
1_9423,,R. CRUZ ALCÂNTARA,,38.70905304,-9.17436409,,,0,,,0,
1_10320,,R. CRUZEIRO,,38.709205627,-9.1946220398,,,0,,,0,
1_12017,,R. CRUZEIRO / R. ENG. ANTÓNIO,,38.705879211,-9.1881570816,,,0,,,0,
1_10319,,R. CRUZEIRO/TV. JOSÉ FERNANDES,,38.708034515,-9.1927251816,,,0,,,0,
1_10318,,R. CRUZEIRO/TV. PARDAL,,38.706863403,-9.1911039352,,,0,,,0,
1_6815,,R. CUSTÓDIO VIEIRA,,38.72032547,-9.1590509415,,,0,,,0,
1_6816,,R. CUSTÓDIO VIEIRA,,38.720470428,-9.1591558456,,,0,,,0,
1_9803,,R. D. FUAS ROUPINHO,,38.724407196,-9.117395401,,,0,,,0,
1_13411,,R. D. JOÃO CASTRO,,38.705043793,-9.1898965836,,,0,,,0,
1_8513,,R. D. JOÃO V,,38.720825195,-9.1606283188,,,0,,,0,
1_8514,,R. D. JOÃO V,,38.720710754,-9.1607246399,,,0,,,0,
1_8805,,R. D. MARIA I,,38.733989716,-9.2052955627,,,0,,,0,
1_13305,,R. D. VASCO,,38.704891205,-9.1962518692,,,0,,,0,
1_13306,,R. D. VASCO,,38.704933167,-9.1967277527,,,0,,,0,
1_8107,,R. DOMINGOS SEQUEIRA,,38.714962006,-9.1630401611,,,0,,,0,
1_8108,,R. DOMINGOS SEQUEIRA,,38.715103149,-9.1630344391,,,0,,,0,
1_89907,,R. DR. JOSÉ ESPIRITO SANTO,,38.752990723,-9.1057052612,,,0,,,0,
1_89908,,R. DR. JOSÉ ESPIRITO SANTO,,38.75302887,-9.1055164337,,,0,,,0,
1_83117,,R. DR. MANUEL ESPÍRITO SANTO,,38.735054016,-9.1140232086,,,0,,,0,
1_10705,,R. DUARTE GALVÃO,,38.743595123,-9.1761388779,,,0,,,0,
1_10706,,R. DUARTE GALVÃO,,38.743614197,-9.1755237579,,,0,,,0,
1_89914,,R. ENG. FERREIRA DIAS,,38.752105713,-9.1166582108,,,0,,,0,
1_89915,,R. ENG. FERREIRA DIAS,,38.752189636,-9.1165246964,,,0,,,0,
1_8923,,R. ENG. MACIEL CHAVES,,38.736320496,-9.1237783432,,,0,,,0,
1_89916,,R. ENG. RODRIGUES CARVALHO,,38.754924774,-9.1181306839,,,0,,,0,
1_89917,,R. ENG. RODRIGUES CARVALHO,,38.754943848,-9.1179533005,,,0,,,0,
1_8911,,R. ENG.º SANTOS SIMÕES,,38.7358284,-9.1256866455,,,0,,,0,
1_10607,,R. ESCOLA POLITÉCNICA,,38.718070984,-9.1519403458,,,0,,,0,
1_12214,,R. ESCOLAS,,38.773704529,-9.1192722321,,,0,,,0,
1_13813,,R. ESCOLAS GERAIS,,38.71288681,-9.1294927597,,,0,,,0,
1_13814,,R. ESCOLAS GERAIS,,38.713085175,-9.1297082901,,,0,,,0,
1_12829,,R. EUGÉNIO SALVADOR,,38.767097473,-9.1793394089,,,0,,,0,
1_12830,,R. EUGÉNIO SALVADOR,,38.767711639,-9.1802749634,,,0,,,0,
1_83119,,R. FAUSTINO JOSÉ RODRIGUES,,38.734207153,-9.115486145,,,0,,,0,
1_9430,,R. FELICIANO SOUSA,,38.709182739,-9.1753749847,,,0,,,0,
1_5956,,R. FERNANDO LOPES GRAÇA,,38.769260406,-9.1717357635,,,0,,,0,
1_5951,,R. FERNANDO LOPES GRAÇA,,38.770267487,-9.1690998077,,,0,,,0,
1_5952,,R. FERNANDO LOPES GRAÇA,,38.770153046,-9.1690187454,,,0,,,0,
1_50018,,R. FERNANDO NAMORA,,38.760017395,-9.1777133942,,,0,,,0,
1_50019,,R. FERNANDO NAMORA,,38.760135651,-9.1776304245,,,0,,,0,
1_2215,,R. FERNANDO PALHA,,38.747264862,-9.0992364883,,,0,,,0,
1_2216,,R. FERNANDO PALHA,,38.746925354,-9.0996742249,,,0,,,0,
1_1624,,R. FERNANDO SYLAN,,38.740200043,-9.1733531952,,,0,,,0,
1_4221,,R. FERNÃO MENDES PINTO,,38.698192596,-9.2255239487,,,0,,,0,
1_4222,,R. FERNÃO MENDES PINTO,,38.697689056,-9.2251367569,,,0,,,0,
1_7210,,R. FORMOSINHO SANCHEZ,,38.780246735,-9.1721305847,,,0,,,0,
1_601,,R. FORNO TIJOLO,,38.723907471,-9.1320352554,,,0,,,0,
1_602,,R. FORNO TIJOLO,,38.723419189,-9.1317930222,,,0,,,0,
1_8005,,R. FRANCISCO METRASS,,38.717357635,-9.1667032242,,,0,,,0,
1_9135,,R. FRANCISO PEDRO CURADO,,38.727233887,-9.1256971359,,,0,,,0,
1_50027,,R. FREDERICO GEORGE,,38.767993927,-9.1697864532,,,0,,,0,
1_50028,,R. FREDERICO GEORGE,,38.768096924,-9.1693630219,,,0,,,0,
1_8915,,R. FREDERICO PERRY VIDAL,,38.735996246,-9.1222791672,,,0,,,0,
1_8902,,R. FREI FORTUNATO S. BOAVENTUR,,38.73601532,-9.1229391098,,,0,,,0,
1_10919,,R. GARRIDAS,,38.74855423,-9.2014751434,,,0,,,0,
1_9123,,R. GEN. THEMUDO BARATA,,38.72693634,-9.1242141724,,,0,,,0,
1_13415,,R. GIESTAL,,38.700683594,-9.1900568008,,,0,,,0,
1_9130,,R. GRAÇA,,38.719032288,-9.1298370361,,,0,,,0,
1_9131,,R. GRAÇA,,38.719219208,-9.1298799515,,,0,,,0,
1_12401,,R. GREGÓRIO LOPES,,38.71157074,-9.2148628235,,,0,,,0,
1_12402,,R. GREGÓRIO LOPES,,38.711875916,-9.2141666412,,,0,,,0,
1_83113,,R. GUALDIM PAIS,,38.731250763,-9.1168069839,,,0,,,0,
1_83114,,R. GUALDIM PAIS,,38.731128693,-9.1168422699,,,0,,,0,
1_79114,,R. ILHA AMORES,,38.780643463,-9.0938615799,,,0,,,0,
1_13903,,R. ILHA TERCEIRA,,38.765895844,-9.2011890411,,,0,,,0,
1_13301,,R. JARDIM BOTÂNICO,,38.705699921,-9.1994123459,,,0,,,0,
1_6001,,R. JOÃO AMARAL,,38.787326813,-9.1491737366,,,0,,,0,
1_6002,,R. JOÃO AMARAL,,38.787513733,-9.1490945816,,,0,,,0,
1_6032,,R. JOÃO AMARAL,,38.78685379,-9.1496858597,,,0,,,0,
1_6033,,R. JOÃO AMARAL,,38.786956787,-9.1499414444,,,0,,,0,
1_12012,,R. JOÃO BARROS,,38.705490112,-9.185297966,,,0,,,0,
1_12016,,R. JOÃO BARROS,,38.705684662,-9.1848974228,,,0,,,0,
1_8922,,R. JOÃO NASCIMENTO COSTA,,38.737293243,-9.1254768372,,,0,,,0,
1_8916,,R. JOÃO NASCIMENTO COSTA,,38.734157562,-9.1208362579,,,0,,,0,
1_13712,,R. JOÃO ORTIGÃO RAMOS,,38.756305695,-9.2039518356,,,0,,,0,
1_13701,,R. JOÃO ORTIGÃO RAMOS,,38.756313324,-9.2037668228,,,0,,,0,
1_13702,,R. JOÃO ORTIGÃO RAMOS,,38.756420135,-9.2040834427,,,0,,,0,
1_2813,,R. JOSÉ AUGUSTO SEABRA,,38.744171143,-9.2002410889,,,0,,,0,
1_606,,R. JOSÉ ESTÊVÃO,,38.727272034,-9.1379470825,,,0,,,0,
1_613,,R. JOSÉ ESTÊVÃO,,38.727798462,-9.1376285553,,,0,,,0,
1_615,,R. JOSÉ ESTÊVÃO,,38.727432251,-9.1384572983,,,0,,,0,
1_616,,R. JOSÉ ESTÊVÃO,,38.727336884,-9.1373729706,,,0,,,0,
1_12918,,R. JOSÉ PINTO BASTOS,,38.714019775,-9.2060337067,,,0,,,0,
1_9504,,R. JUNQUEIRA (CENTRO CONGRESSO,,38.69978714,-9.1843500137,,,0,,,0,
1_12104,,R. LEÃO OLIVEIRA,,38.70520401,-9.1787719727,,,0,,,0,
1_9121,,R. LEITE VASCONCELOS,,38.717712402,-9.1250162125,,,0,,,0,
1_6605,,R. LUCIANO CORDEIRO,,38.726886749,-9.1456861496,,,0,,,0,
1_6606,,R. LUCIANO CORDEIRO,,38.726737976,-9.1457662582,,,0,,,0,
1_83123,,R. LUIS BARBOSA,,38.735687256,-9.1144924164,,,0,,,0,
1_12004,,R. LUIS CAMÕES,,38.704528809,-9.1830482483,,,0,,,0,
1_12005,,R. LUIS CAMÕES,,38.704105377,-9.1827707291,,,0,,,0,
1_14703,,R. LUIS CRISTINO SILVA,,38.758117676,-9.1229286194,,,0,,,0,
1_14704,,R. LUIS CRISTINO SILVA,,38.757904053,-9.1231851578,,,0,,,0,
1_11520,,R. LUIS PIÇARRA,,38.77589798,-9.1512956619,,,0,,,0,
1_11521,,R. LUIS PIÇARRA,,38.775886536,-9.1508359909,,,0,,,0,
1_5908,,R. LUMIAR,,38.775959015,-9.1634101868,,,0,,,0,
1_12113,,R. LUSÍADAS,,38.70532608,-9.1802816391,,,0,,,0,
1_12114,,R. LUSÍADAS,,38.705181122,-9.1809549332,,,0,,,0,
1_12103,,R. LUSÍADAS / R. LEÃO OLIVEIRA,,38.705741882,-9.1781902313,,,0,,,0,
1_9816,,R. MADRE DEUS,,38.722637177,-9.1156635284,,,0,,,0,
1_89923,,R. MANUEL TEIXEIRA GOMES,,38.751743317,-9.1094875336,,,0,,,0,
1_89924,,R. MANUEL TEIXEIRA GOMES,,38.75164032,-9.109369278,,,0,,,0,
1_89925,,R. MANUEL TEIXEIRA GOMES (ESC.,,38.752056122,-9.1120176315,,,0,,,0,
1_89926,,R. MANUEL TEIXEIRA GOMES (ESC.,,38.75169754,-9.1120433807,,,0,,,0,
1_708,,R. MARIA,,38.723819733,-9.1332511902,,,0,,,0,
1_11514,,R. MARIA ALBERTINA,,38.777309418,-9.1547555923,,,0,,,0,
1_706,,R. MARIA ANDRADE,,38.723560333,-9.1344709396,,,0,,,0,
1_9410,,R. MARIA PIA / ESTR. LOUREIRO,,38.711074829,-9.1723461151,,,0,,,0,
1_83103,,R. MARQUÊS OLHÃO,,38.73135376,-9.111661911,,,0,,,0,
1_13615,,R. MATEUS VICENTE,,38.755970001,-9.178861618,,,0,,,0,
1_13626,,R. MATEUS VICENTE / R. ANJOS T,,38.756271362,-9.181014061,,,0,,,0,
1_6013,,R. MELO ANTUNES,,38.779205322,-9.1446838379,,,0,,,0,
1_6016,,R. MELO ANTUNES,,38.779045105,-9.1447906494,,,0,,,0,
1_13125,,R. MEM RODRIGUES,,38.708129883,-9.2090272903,,,0,,,0,
1_13126,,R. MEM RODRIGUES,,38.708076477,-9.2088985443,,,0,,,0,
1_508,,R. MORAIS SOARES,,38.732437134,-9.1308460236,,,0,,,0,
1_501,,R. MORAIS SOARES,,38.73273468,-9.1304111481,,,0,,,0,
1_502,,R. MORAIS SOARES,,38.732654572,-9.1305570602,,,0,,,0,
1_7012,,R. MORAIS SOARES (CEMITÉRIO),,38.730262756,-9.1249332428,,,0,,,0,
1_7013,,R. MORAIS SOARES (CEMITÉRIO),,38.730617523,-9.1253414154,,,0,,,0,
1_13627,,R. NATÉRCIA FREIRE,,38.754684448,-9.1823387146,,,0,,,0,
1_10612,,R. NOVA S. MAMEDE,,38.719646454,-9.1511411667,,,0,,,0,
1_5510,,R. OURO,,38.710845947,-9.138715744,,,0,,,0,
1_12835,,R. PADRE AMÉRICO,,38.761554718,-9.1798267365,,,0,,,0,
1_12836,,R. PADRE AMÉRICO,,38.761737823,-9.1796293259,,,0,,,0,
1_803,,R. PALMA,,38.719200134,-9.1355638504,,,0,,,0,
1_804,,R. PALMA,,38.719158173,-9.1357364655,,,0,,,0,
1_2121,,R. PARAÍSO,,38.713989258,-9.1243581772,,,0,,,0,
1_2122,,R. PARAÍSO,,38.713863373,-9.1247119904,,,0,,,0,
1_2807,,R. PARQUE,,38.745582581,-9.2006340027,,,0,,,0,
1_2808,,R. PARQUE,,38.745731354,-9.2004747391,,,0,,,0,
1_510,,R. PASCOAL MELO,,38.731388092,-9.1361522675,,,0,,,0,
1_511,,R. PASCOAL MELO,,38.73122406,-9.1357107162,,,0,,,0,
1_611,,R. PASSOS MANUEL,,38.7280159,-9.1367797852,,,0,,,0,
1_10926,,R. PEDRALVAS,,38.753871918,-9.2060709,,,0,,,0,
1_10927,,R. PEDRALVAS,,38.753952026,-9.2062625885,,,0,,,0,
1_9103,,R. PENHA FRANÇA,,38.724369049,-9.1296205521,,,0,,,0,
1_9104,,R. PENHA FRANÇA,,38.723880768,-9.1293821335,,,0,,,0,
1_517,,R. PEREIRA CARRILHO,,38.734012604,-9.1357488632,,,0,,,0,
1_518,,R. PEREIRA CARRILHO,,38.734138489,-9.1357593536,,,0,,,0,
1_9512,,R. PINTO FERREIRA,,38.698226929,-9.1913576126,,,0,,,0,
1_7111,,R. POÇO NEGROS,,38.709804535,-9.1517276764,,,0,,,0,
1_6724,,R. POIAIS S. BENTO,,38.710769653,-9.1518688202,,,0,,,0,
1_5518,,R. PRATA,,38.711025238,-9.1368942261,,,0,,,0,
1_50013,,R. PROF. FERNANDO FONSECA,,38.76171875,-9.165189743,,,0,,,0,
1_50014,,R. PROF. FERNANDO FONSECA,,38.761577606,-9.1650791168,,,0,,,0,
1_5941,,R. PROF. FERNANDO MELLO MOSER,,38.770896912,-9.1688318253,,,0,,,0,
1_5942,,R. PROF. FERNANDO MELLO MOSER,,38.770946503,-9.1687231064,,,0,,,0,
1_50005,,R. PROF. FRANCISCO GENTIL (MET,,38.761100769,-9.1669130325,,,0,,,0,
1_50006,,R. PROF. FRANCISCO GENTIL (MET,,38.76051712,-9.1672668457,,,0,,,0,
1_50007,,R. PROF. JOÃO BARREIRA,,38.762458801,-9.1706829071,,,0,,,0,
1_50010,,R. PROF. JOÃO BARREIRA,,38.762542725,-9.1708173752,,,0,,,0,
1_5924,,R. PROF. M. VALADARES,,38.776092529,-9.159778595,,,0,,,0,
1_5925,,R. PROF. M. VALADARES,,38.775844574,-9.160492897,,,0,,,0,
1_8903,,R. PROF. MIRA FERNANDES,,38.738067627,-9.1234073639,,,0,,,0,
1_5943,,R. PROF. ORLANDO RIBEIRO,,38.770324707,-9.1707715988,,,0,,,0,
1_5944,,R. PROF. ORLANDO RIBEIRO,,38.770553589,-9.1705341339,,,0,,,0,
1_50025,,R. PROF. PRADO COELHO,,38.76700592,-9.1706695557,,,0,,,0,
1_50026,,R. PROF. PRADO COELHO,,38.7669487,-9.1709823608,,,0,,,0,
1_50004,,R. PROF. QUEIRÓS VELOSO,,38.764083862,-9.1707925797,,,0,,,0,
1_10824,,R. PROF. REINALDO SANTOS,,38.747814178,-9.1884946823,,,0,,,0,
1_10821,,R. PROF. REINALDO SANTOS,,38.74704361,-9.1883029938,,,0,,,0,
1_10805,,R. PROF. REINALDO SANTOS,,38.747692108,-9.1883201599,,,0,,,0,
1_50008,,R. PROF. VIEIRA ALMEIDA,,38.764583588,-9.1665678024,,,0,,,0,
1_50003,,R. PROF. VIEIRA ALMEIDA,,38.764217377,-9.1668863297,,,0,,,0,
1_5916,,R. RAINHA D. LUÍSA GUSMÃO,,38.767459869,-9.1596107483,,,0,,,0,
1_1623,,R. RAUL CARAPINHA,,38.741397858,-9.1736364365,,,0,,,0,
1_6034,,R. RAUL REGO,,38.784137726,-9.1513137817,,,0,,,0,
1_6035,,R. RAUL REGO,,38.783905029,-9.1516609192,,,0,,,0,
1_6036,,R. RAUL REGO (ESCOLA),,38.78295517,-9.149553299,,,0,,,0,
1_6037,,R. RAUL REGO (ESCOLA),,38.782497406,-9.1494579315,,,0,,,0,
1_14105,,R. RIO TEJO,,38.770969391,-9.1889705658,,,0,,,0,
1_14106,,R. RIO TEJO,,38.771076202,-9.1892404556,,,0,,,0,
1_6722,,R. S. BENTO / CÇ. ESTRELA,,38.711475372,-9.1531906128,,,0,,,0,
1_6723,,R. S. BENTO / CÇ. ESTRELA,,38.710361481,-9.1526479721,,,0,,,0,
1_10016,,R. S. DOMINGOS À LAPA,,38.709705353,-9.162437439,,,0,,,0,
1_10006,,R. S. DOMINGOS À LAPA,,38.70930481,-9.1617126465,,,0,,,0,
1_9716,,R. S. FRANCISCO XAVIER,,38.698776245,-9.2178401947,,,0,,,0,
1_10001,,R. SANTANA À LAPA / R. BUENOS,,38.710330963,-9.1614131927,,,0,,,0,
1_9111,,R. SAPADORES,,38.721225739,-9.1271858215,,,0,,,0,
1_9112,,R. SAPADORES,,38.72108078,-9.1270427704,,,0,,,0,
1_8001,,R. SARAIVA CARVALHO,,38.715320587,-9.1646022797,,,0,,,0,
1_8002,,R. SARAIVA CARVALHO,,38.715461731,-9.1645317078,,,0,,,0,
1_13623,,R. SOEIROS,,38.754844666,-9.1737442017,,,0,,,0,
1_9119,,R. SRA. GLÓRIA,,38.718219757,-9.1276702881,,,0,,,0,
1_1218,,R. STA. MARTA,,38.725296021,-9.1460256577,,,0,,,0,
1_13902,,R. STO. ELOY,,38.766845703,-9.2009630203,,,0,,,0,
1_5948,,R. TEÓFILO CARVALHO SANTOS,,38.77041626,-9.1730918884,,,0,,,0,
1_6022,,R. TITO MORAIS,,38.782531738,-9.1474170685,,,0,,,0,
1_6025,,R. TITO MORAIS,,38.782699585,-9.1471939087,,,0,,,0,
1_89921,,R. TOMÁS ALCAIDE,,38.752811432,-9.1103258133,,,0,,,0,
1_89922,,R. TOMÁS ALCAIDE,,38.753002167,-9.1103134155,,,0,,,0,
1_13602,,R. TOMÁS FONSECA,,38.756122589,-9.1764469147,,,0,,,0,
1_13115,,R. TRISTÃO VAZ,,38.707576752,-9.2059593201,,,0,,,0,
1_13116,,R. TRISTÃO VAZ,,38.707714081,-9.2058534622,,,0,,,0,
1_2105,,R. VALE STO. ANTÓNIO,,38.717739105,-9.1220607758,,,0,,,0,
1_2106,,R. VALE STO. ANTÓNIO,,38.718044281,-9.1221847534,,,0,,,0,
1_2814,,R. VASCO BOTELHO AMARAL,,38.743144989,-9.2025671005,,,0,,,0,
1_8813,,R. VENEZUELA,,38.745109558,-9.2027425766,,,0,,,0,
1_8816,,R. VENEZUELA,,38.745258331,-9.2029724121,,,0,,,0,
1_13625,,R. VIRGÍLIO CORREIA (LOJA CIDA,,38.751262665,-9.1721315384,,,0,,,0,
1_13624,,R. VIRGÍLIO CORREIA / R. LÚCIO,,38.751262665,-9.1721315384,,,0,,,0,
1_12833,,R. VIRGILIO MARTINHO,,38.765167236,-9.1785306931,,,0,,,0,
1_11110,,R. VISCONDE SANTARÉM,,38.734912872,-9.1398544312,,,0,,,0,
1_11106,,R. VISCONDE SANTARÉM,,38.734897614,-9.1396093369,,,0,,,0,
1_10517,,R. VITOR CORDON,,38.707939148,-9.142578125,,,0,,,0,
1_10519,,R. VITOR CORDON / R. SERPA PIN,,38.707962036,-9.1414222717,,,0,,,0,
1_10516,,R. VITOR CORDON / R. SERPA PIN,,38.708263397,-9.1419820786,,,0,,,0,
1_2221,,R.ARMANDINHO,,38.749671936,-9.1033554077,,,0,,,0,
1_12605,,RALIS,,38.78237915,-9.1181459427,,,0,,,0,
1_12606,,RALIS,,38.782287598,-9.1184282303,,,0,,,0,
1_12620,,RALIS,,38.781402588,-9.120347023,,,0,,,0,
1_12601,,RALIS,,38.781642914,-9.1194143295,,,0,,,0,
1_12602,,RALIS,,38.780902863,-9.1200933456,,,0,,,0,
1_6807,,RATO,,38.719913483,-9.1546945572,,,0,,,0,
1_6808,,RATO,,38.719741821,-9.1541700363,,,0,,,0,
1_6810,,RATO,,38.720031738,-9.1551218033,,,0,,,0,
1_6811,,RATO,,38.720279694,-9.1537885666,,,0,,,0,
1_6812,,RATO,,38.720249176,-9.1548900604,,,0,,,0,
1_6825,,RATO,,38.720344543,-9.1536626816,,,0,,,0,
1_6804,,RATO,,38.720081329,-9.154841423,,,0,,,0,
1_6805,,RATO,,38.719833374,-9.1550693512,,,0,,,0,
1_6819,,RATO,,38.720451355,-9.1553897858,,,0,,,0,
1_6821,,RATO,,38.721256256,-9.1562023163,,,0,,,0,
1_6822,,RATO,,38.720291138,-9.1556606293,,,0,,,0,
1_6813,,RATO - R. D. JOÃO V,,38.720767975,-9.1563196182,,,0,,,0,
1_3023,,Reboleira (Metro),,38.750442505,-9.2218122482,,,0,,,0,
1_1002,,RESTAURADORES,,38.715438843,-9.1419038773,,,0,,,0,
1_1003,,RESTAURADORES,,38.715976715,-9.1416254044,,,0,,,0,
1_1004,,RESTAURADORES,,38.715446472,-9.1417627335,,,0,,,0,
1_1005,,RESTAURADORES,,38.715957642,-9.1415996552,,,0,,,0,
1_1006,,RESTAURADORES,,38.715629578,-9.1419181824,,,0,,,0,
1_1010,,RESTAURADORES,,38.716117859,-9.141752243,,,0,,,0,
1_1014,,RESTAURADORES - GLÓRIA,,38.71616745,-9.1426677704,,,0,,,0,
1_12930,,RESTELO,,38.712284088,-9.2109155655,,,0,,,0,
1_12404,,RESTELO - AV. DESCOBERTAS,,38.709819794,-9.2149839401,,,0,,,0,
1_12407,,RESTELO - AV. DESCOBERTAS,,38.709701538,-9.2154579163,,,0,,,0,
1_13119,,RESTELO - EPUL,,38.70621109,-9.2127628326,,,0,,,0,
1_13120,,RESTELO - EPUL,,38.706008911,-9.2124156952,,,0,,,0,
1_12403,,RESTELO - R. ANTÃO GONÇALVES,,38.708930969,-9.2143497467,,,0,,,0,
1_13101,,RESTELO - RUA TRISTÃO VAZ,,38.709518433,-9.2084646225,,,0,,,0,
1_13102,,RESTELO - RUA TRISTÃO VAZ,,38.709693909,-9.2084341049,,,0,,,0,
1_12409,,RESTELO (AV. DAS DESCOBERTAS),,38.709079742,-9.2140569687,,,0,,,0,
1_12410,,RESTELO (AV. DAS DESCOBERTAS),,38.709129333,-9.2143096924,,,0,,,0,
1_12411,,RESTELO (RUA CARLOS CALISTO),,38.711009979,-9.210817337,,,0,,,0,
1_12415,,RESTELO (TORRES),,38.711914062,-9.2117137909,,,0,,,0,
1_12405,,RESTELO (TORRES) - R. ANTÃO GO,,38.709197998,-9.2114582062,,,0,,,0,
1_12406,,RESTELO (TORRES) - R. ANTÃO GO,,38.709346771,-9.2115697861,,,0,,,0,
1_12408,,RESTELO TORRES,,38.711322784,-9.2103729248,,,0,,,0,
1_13405,,RIO SECO,,38.703411102,-9.1916122437,,,0,,,0,
1_13406,,RIO SECO,,38.703704834,-9.1908769608,,,0,,,0,
1_919,,ROSSIO,,38.714401245,-9.1392183304,,,0,,,0,
1_908,,ROSSIO,,38.714038849,-9.1398849487,,,0,,,0,
1_901,,ROSSIO,,38.714267731,-9.1391191483,,,0,,,0,
1_902,,ROSSIO,,38.713573456,-9.13971138,,,0,,,0,
1_79107,,ROSSIO DE LEVANTE,,38.783172607,-9.0940818787,,,0,,,0,
1_79108,,ROSSIO DE LEVANTE,,38.783203125,-9.0951280594,,,0,,,0,
1_2310,,ROT. CABO RUIVO,,38.754642487,-9.1031236649,,,0,,,0,
1_2328,,ROT. CABO RUIVO,,38.756614685,-9.103017807,,,0,,,0,
1_16301,,ROTUNDA DA ENCARNAÇÃO,,38.782367706,-9.1260042191,,,0,,,0,
1_16302,,ROTUNDA DA ENCARNAÇÃO,,38.782649994,-9.125213623,,,0,,,0,
1_16303,,ROTUNDA DA ENCARNAÇÃO,,38.783561707,-9.1245355606,,,0,,,0,
1_16304,,ROTUNDA DA ENCARNAÇÃO,,38.783924103,-9.124792099,,,0,,,0,
1_8908,,ROTUNDA DAS OLAIAS,,38.738479614,-9.1253461838,,,0,,,0,
1_8910,,ROTUNDA DAS OLAIAS,,38.739238739,-9.1262464523,,,0,,,0,
1_79103,,ROTUNDA DAS OLIVEIRAS,,38.780670166,-9.0964298248,,,0,,,0,
1_79104,,ROTUNDA DAS OLIVEIRAS,,38.780601501,-9.096487999,,,0,,,0,
1_2314,,ROTUNDA DE CABO RUIVO,,38.755878448,-9.1039075851,,,0,,,0,
1_2304,,ROTUNDA DE CABO RUIVO,,38.75610733,-9.1041736603,,,0,,,0,
1_9114,,RUA AFONSO DOMINGUES,,38.720645905,-9.1245622635,,,0,,,0,
1_5839,,RUA AGOSTINHO NETO,,38.761764526,-9.1538352966,,,0,,,0,
1_5840,,RUA AGOSTINHO NETO,,38.761749268,-9.1541166306,,,0,,,0,
1_5832,,RUA AGOSTINHO NETO,,38.763233185,-9.1534576416,,,0,,,0,
1_5833,,RUA AGOSTINHO NETO,,38.762950897,-9.1534996033,,,0,,,0,
1_3721,,RUA ALBERTO JOSÉ PESSOA,,38.741603851,-9.107881546,,,0,,,0,
1_2336,,RUA ALMADA NEGREIROS,,38.760559082,-9.1059808731,,,0,,,0,
1_5836,,RUA AMÍLCAR CABRAL,,38.764728546,-9.1538848877,,,0,,,0,
1_5837,,RUA AMÍLCAR CABRAL,,38.764831543,-9.1528282166,,,0,,,0,
1_13621,,RUA ANTÓNIO ALBINO MACHADO,,38.75434494,-9.1692180634,,,0,,,0,
1_13622,,RUA ANTÓNIO ALBINO MACHADO,,38.754112244,-9.1689605713,,,0,,,0,
1_1601,,RUA ANTÓNIO GRANJO,,38.738838196,-9.1646118164,,,0,,,0,
1_1602,,RUA ANTÓNIO GRANJO,,38.738639832,-9.1645908356,,,0,,,0,
1_6127,,RUA ARTILHARIA UM,,38.725910187,-9.1574392319,,,0,,,0,
1_6128,,RUA ARTILHARIA UM,,38.72668457,-9.1585741043,,,0,,,0,
1_10825,,RUA AUGUSTO PINA,,38.749504089,-9.1856203079,,,0,,,0,
1_2707,,RUA B - Bº DA LIBERDADE,,38.734886169,-9.1703443527,,,0,,,0,
1_2708,,RUA B - Bº DA LIBERDADE,,38.734680176,-9.1702318192,,,0,,,0,
1_12305,,RUA BARRILARO RUAS,,38.777164459,-9.1161680222,,,0,,,0,
1_12306,,RUA BARRILARO RUAS,,38.777069092,-9.1159000397,,,0,,,0,
1_3019,,RUA BERNARDINO MACHADO,,38.743759155,-9.2196645737,,,0,,,0,
1_3020,,RUA BERNARDINO MACHADO,,38.743610382,-9.2196683884,,,0,,,0,
1_13307,,RUA BICA DO MARQUÊS,,38.704204559,-9.1994895935,,,0,,,0,
1_13308,,RUA BICA DO MARQUÊS,,38.70432663,-9.199300766,,,0,,,0,
1_6809,,RUA BRAAMCAMP,,38.722129822,-9.1518011093,,,0,,,0,
1_6820,,RUA BRAAMCAMP,,38.721687317,-9.1515712738,,,0,,,0,
1_6806,,RUA BRAAMCAMP,,38.722236633,-9.1519870758,,,0,,,0,
1_10011,,RUA BUENOS AIRES,,38.711322784,-9.1609382629,,,0,,,0,
1_10012,,RUA BUENOS AIRES,,38.712120056,-9.1603622437,,,0,,,0,
1_2720,,RUA C - Bº DA LIBERDADE,,38.735393524,-9.1717681885,,,0,,,0,
1_1013,,RUA CÂMARA PESTANA,,38.718658447,-9.140130043,,,0,,,0,
1_9407,,RUA CAPITÃO AFONSO PALA,,38.708480835,-9.1714668274,,,0,,,0,
1_9408,,RUA CAPITÃO AFONSO PALA,,38.70847702,-9.1713628769,,,0,,,0,
1_10817,,RUA CAROLINA MICHAELIS,,38.744258881,-9.1942996979,,,0,,,0,
1_10818,,RUA CAROLINA MICHAELIS,,38.744495392,-9.1930446625,,,0,,,0,
1_10831,,RUA CAROLINA MICHAELIS,,38.744457245,-9.1941728592,,,0,,,0,
1_10838,,RUA CAROLINA MICHAELIS,,38.744487762,-9.192035675,,,0,,,0,
1_3006,,RUA CARVALHO ARAÚJO,,38.747570038,-9.2212696075,,,0,,,0,
1_11708,,RUA CASTELO BRANCO SARAIVA,,38.725036621,-9.1223983765,,,0,,,0,
1_7016,,RUA CESÁRIO VERDE,,38.730041504,-9.1303501129,,,0,,,0,
1_7007,,RUA CESÁRIO VERDE,,38.729167938,-9.1298923492,,,0,,,0,
1_79123,,RUA CHEN HE,,38.788749695,-9.0995368958,,,0,,,0,
1_7724,,RUA CIDADE BENGUELA - MERCADO,,38.76518631,-9.1109189987,,,0,,,0,
1_7518,,RUA CIDADE DA BEIRA,,38.76782608,-9.1233778,,,0,,,0,
1_7725,,RUA CIDADE DE BENGUELA,,38.765476227,-9.1108932495,,,0,,,0,
1_7722,,RUA CIDADE DE BENGUELA,,38.765937805,-9.1130189896,,,0,,,0,
1_7723,,RUA CIDADE DE BENGUELA,,38.765777588,-9.1133499146,,,0,,,0,
1_8413,,RUA CIDADE DE BISSAU - METRO,,38.760471344,-9.1119976044,,,0,,,0,
1_8414,,RUA CIDADE DE BISSAU - METRO,,38.760349274,-9.1116724014,,,0,,,0,
1_7521,,RUA CIDADE DE NAMPULA,,38.764305115,-9.1204614639,,,0,,,0,
1_7519,,RUA CIDADE DE QUELIMANE,,38.765766144,-9.1249084473,,,0,,,0,
1_8443,,RUA CIDADE NOVO REDONDO,,38.764938354,-9.1160612106,,,0,,,0,
1_8438,,RUA CIDADE NOVO REDONDO,,38.765010834,-9.1162176132,,,0,,,0,
1_10711,,RUA CONDE DE ALMOSTER,,38.743412018,-9.1805086136,,,0,,,0,
1_8425,,RUA CONSELHEIRO EMÍDIO NAVARRO,,38.756591797,-9.1182956696,,,0,,,0,
1_8426,,RUA CONSELHEIRO EMÍDIO NAVARRO,,38.756866455,-9.1185102463,,,0,,,0,
1_8427,,RUA CONSELHEIRO EMÍDIO NAVARRO,,38.757099152,-9.1166086197,,,0,,,0,
1_8428,,RUA CONSELHEIRO EMÍDIO NAVARRO,,38.757102966,-9.1161766052,,,0,,,0,
1_8509,,RUA CONSELHEIRO FERNANDO SOUSA,,38.725223541,-9.1599721909,,,0,,,0,
1_9705,,RUA CONSTANTINO DE BRAGANÇA,,38.706058502,-9.2163848877,,,0,,,0,
1_9706,,RUA CONSTANTINO DE BRAGANÇA,,38.706367493,-9.2160625458,,,0,,,0,
1_9303,,RUA CORREIA TELES,,38.718891144,-9.1713485718,,,0,,,0,
1_9304,,RUA CORREIA TELES,,38.718753815,-9.1712865829,,,0,,,0,
1_3303,,RUA DA BENEFICÊNCIA,,38.743144989,-9.156701088,,,0,,,0,
1_3304,,RUA DA BENEFICÊNCIA,,38.743965149,-9.1580896378,,,0,,,0,
1_3302,,RUA DA BENEFICÊNCIA,,38.741672516,-9.1573419571,,,0,,,0,
1_2103,,RUA DA BICA DO SAPATO,,38.716373444,-9.1206274033,,,0,,,0,
1_2104,,RUA DA BICA DO SAPATO,,38.716781616,-9.1205472946,,,0,,,0,
1_5602,,RUA DA CONCEIÇÃO,,38.709945679,-9.1359615326,,,0,,,0,
1_8823,,RUA DA CRECHE,,38.743988037,-9.211066246,,,0,,,0,
1_8824,,RUA DA CRECHE,,38.744075775,-9.2108793259,,,0,,,0,
1_10608,,RUA DA ESCOLA POLITÉCNICA,,38.717536926,-9.1510467529,,,0,,,0,
1_9511,,RUA DA JUNQUEIRA,,38.700004578,-9.1834306717,,,0,,,0,
1_9503,,RUA DA JUNQUEIRA,,38.700035095,-9.1836547852,,,0,,,0,
1_9805,,RUA DA MADRE DEUS,,38.722854614,-9.1150979996,,,0,,,0,
1_9806,,RUA DA MADRE DEUS,,38.723419189,-9.1153039932,,,0,,,0,
1_6715,,RUA DA PALMEIRA,,38.7146492,-9.1500053406,,,0,,,0,
1_6716,,RUA DA PALMEIRA,,38.714839935,-9.1501550674,,,0,,,0,
1_904,,RUA DA PRATA,,38.712051392,-9.139588356,,,0,,,0,
1_9122,,RUA DA SENHORA DA GLÓRIA,,38.718044281,-9.1274108887,,,0,,,0,
1_4208,,RUA DAMIÃO DE GÓIS,,38.698360443,-9.2250528336,,,0,,,0,
1_4209,,RUA DAMIÃO DE GÓIS,,38.698226929,-9.2250413895,,,0,,,0,
1_88101,,RUA DAS GALEGAS,,38.735897064,-9.2110452652,,,0,,,0,
1_88105,,RUA DAS GALEGAS,,38.735988617,-9.211063385,,,0,,,0,
1_10918,,RUA DAS GARRIDAS,,38.74861145,-9.1992101669,,,0,,,0,
1_3907,,RUA DAS JANELAS VERDES,,38.705387115,-9.1604862213,,,0,,,0,
1_3908,,RUA DAS JANELAS VERDES,,38.705101013,-9.1613416672,,,0,,,0,
1_11310,,RUA DAS MURTAS - AV. DO BRASIL,,38.755989075,-9.1487579346,,,0,,,0,
1_11401,,RUA DAS MURTAS POENTE,,38.758800507,-9.1500396729,,,0,,,0,
1_9426,,RUA DAS NECESSIDADES,,38.705741882,-9.1697597504,,,0,,,0,
1_16312,,RUA DE CABO VERDE,,38.791229248,-9.1209144592,,,0,,,0,
1_8025,,RUA DE CAMPO DE OURIQUE,,38.720970154,-9.1635456085,,,0,,,0,
1_2718,,RUA DE CAMPOLIDE - JOSÉ MALHOA,,38.736774445,-9.1674556732,,,0,,,0,
1_16314,,RUA DE DIU,,38.791488647,-9.1233348846,,,0,,,0,
1_8440,,RUA DE MANHIÇA,,38.758296967,-9.108250618,,,0,,,0,
1_12519,,RUA DE MARVILA,,38.739608765,-9.1064987183,,,0,,,0,
1_12520,,RUA DE MARVILA,,38.739311218,-9.1066579819,,,0,,,0,
1_1217,,RUA DE SANTA MARTA,,38.725154877,-9.146197319,,,0,,,0,
1_6705,,RUA DE SÃO BENTO,,38.715026855,-9.1540336609,,,0,,,0,
1_6706,,RUA DE SÃO BENTO,,38.715278625,-9.154381752,,,0,,,0,
1_10015,,RUA DE SÃO DOMINGOS À LAPA,,38.70892334,-9.1619205475,,,0,,,0,
1_9717,,RUA DE SÃO FRANCISCO XAVIER,,38.699115753,-9.2175884247,,,0,,,0,
1_10009,,RUA DE SÃO JOÃO DA MATA,,38.707889557,-9.1590909958,,,0,,,0,
1_10010,,RUA DE SÃO JOÃO DA MATA,,38.707702637,-9.1596708298,,,0,,,0,
1_809,,RUA DE SÃO LÁZARO,,38.718601227,-9.1367111206,,,0,,,0,
1_810,,RUA DE SÃO LÁZARO,,38.718219757,-9.1363344193,,,0,,,0,
1_9905,,RUA DE SÃO PAULO,,38.708557129,-9.1467676163,,,0,,,0,
1_3818,,RUA DE SÃO PAULO,,38.707771301,-9.1445894241,,,0,,,0,
1_3819,,RUA DE SÃO PAULO,,38.707717896,-9.1441459656,,,0,,,0,
1_9901,,RUA DE SÃO PAULO / BICA,,38.708503723,-9.1466884613,,,0,,,0,
1_9902,,RUA DE SÃO PAULO / BICA,,38.708450317,-9.1470470428,,,0,,,0,
1_3701,,RUA DINAH SILVEIRA QUEIRÓZ,,38.740737915,-9.1119165421,,,0,,,0,
1_3702,,RUA DINAH SILVEIRA QUEIRÓZ,,38.740650177,-9.1120586395,,,0,,,0,
1_12507,,RUA DO AÇÚCAR,,38.737262726,-9.1036052704,,,0,,,0,
1_12508,,RUA DO AÇÚCAR,,38.736915588,-9.1038246155,,,0,,,0,
1_3825,,RUA DO ALECRIM,,38.70759201,-9.1433458328,,,0,,,0,
1_3826,,RUA DO ALECRIM,,38.708061218,-9.1434059143,,,0,,,0,
1_9709,,RUA DO ALTO DO DUQUE,,38.701015472,-9.2214641571,,,0,,,0,
1_9710,,RUA DO ALTO DO DUQUE,,38.700881958,-9.2213039398,,,0,,,0,
1_6817,,RUA DO ARCO,,38.717517853,-9.1552219391,,,0,,,0,
1_6818,,RUA DO ARCO,,38.718086243,-9.1555147171,,,0,,,0,
1_2511,,RUA DO CARIBE,,38.765975952,-9.0981788635,,,0,,,0,
1_2512,,RUA DO CARIBE,,38.766220093,-9.0978059769,,,0,,,0,
1_8442,,RUA DO CHIBUTO,,38.760925293,-9.1103343964,,,0,,,0,
1_10305,,RUA DO CRUZEIRO,,38.709621429,-9.1947832108,,,0,,,0,
1_10306,,RUA DO CRUZEIRO,,38.709506989,-9.1947145462,,,0,,,0,
1_10314,,RUA DO CRUZEIRO,,38.71006012,-9.1949634552,,,0,,,0,
1_13302,,RUA DO JARDIM BOTÂNICO,,38.705760956,-9.1998720169,,,0,,,0,
1_9115,,RUA DO MATO GROSSO,,38.719818115,-9.1231660843,,,0,,,0,
1_9116,,RUA DO MATO GROSSO,,38.719524384,-9.1228647232,,,0,,,0,
1_7726,,RUA DO MERCADO,,38.770526886,-9.1169424057,,,0,,,0,
1_7727,,RUA DO MERCADO,,38.770961761,-9.1171398163,,,0,,,0,
1_903,,RUA DO OURO,,38.712135315,-9.1392374039,,,0,,,0,
1_10111,,RUA DO POSSOLO,,38.712612152,-9.1649827957,,,0,,,0,
1_18708,,RUA DO PROLETARIADO,,38.72227478,-9.2178039551,,,0,,,0,
1_18709,,RUA DO PROLETARIADO,,38.722332001,-9.217464447,,,0,,,0,
1_10307,,RUA DO SÍTIO,,38.710773468,-9.1933279037,,,0,,,0,
1_10308,,RUA DO SÍTIO,,38.71055603,-9.1934461594,,,0,,,0,
1_9804,,RUA DOM FUAS ROUPINHO,,38.72461319,-9.1163864136,,,0,,,0,
1_8519,,RUA DOM JOÃO V,,38.721057892,-9.1609792709,,,0,,,0,
1_10610,,RUA DOM PEDRO V,,38.715385437,-9.1461172104,,,0,,,0,
1_13312,,RUA DOM VASCO,,38.704883575,-9.195810318,,,0,,,0,
1_13313,,RUA DOM VASCO,,38.705158234,-9.1961050034,,,0,,,0,
1_9607,,RUA DOS JERÓNIMOS,,38.699794769,-9.2059116364,,,0,,,0,
1_9608,,RUA DOS JERÓNIMOS,,38.699802399,-9.2057971954,,,0,,,0,
1_13822,,RUA DOS LAGARES,,38.715465546,-9.1320896149,,,0,,,0,
1_12207,,RUA DOS LOJISTAS,,38.772937775,-9.1153612137,,,0,,,0,
1_12208,,RUA DOS LOJISTAS,,38.774066925,-9.1167821884,,,0,,,0,
1_13611,,RUA DOS SOEIROS,,38.754619598,-9.1799545288,,,0,,,0,
1_13612,,RUA DOS SOEIROS,,38.75472641,-9.1794881821,,,0,,,0,
1_11208,,RUA DOUTOR GAMA BARROS,,38.747943878,-9.1364097595,,,0,,,0,
1_7402,,RUA EDUARDO NORONHA,,38.754581451,-9.1316204071,,,0,,,0,
1_7403,,RUA EDUARDO NORONHA,,38.754402161,-9.131570816,,,0,,,0,
1_3008,,RUA FERNANDO TAMAGNINI,,38.745315552,-9.2219982147,,,0,,,0,
1_3009,,RUA FERNANDO TAMAGNINI,,38.745616913,-9.2220640182,,,0,,,0,
1_14712,,RUA FERREIRA DE CASTRO,,38.754478455,-9.1249656677,,,0,,,0,
1_14713,,RUA FERREIRA DE CASTRO,,38.754165649,-9.1248846054,,,0,,,0,
1_1512,,RUA FILIPE DA MATA,,38.741313934,-9.1602907181,,,0,,,0,
1_1509,,RUA FILIPE DA MATA,,38.741146088,-9.1598701477,,,0,,,0,
1_10312,,RUA FONSECA BENEVIDES,,38.710193634,-9.1913423538,,,0,,,0,
1_10718,,RUA FRANCISCO GENTIL - FURNAS,,38.740116119,-9.1739788055,,,0,,,0,
1_6103,,RUA FRANCISCO MANUEL DE MELO,,38.727920532,-9.1593341827,,,0,,,0,
1_8008,,RUA FRANCISCO METRASS,,38.718395233,-9.1662454605,,,0,,,0,
1_10007,,RUA GARCIA DA ORTA,,38.707267761,-9.1614046097,,,0,,,0,
1_10008,,RUA GARCIA DA ORTA,,38.707336426,-9.1613140106,,,0,,,0,
1_13117,,RUA GONÇALVES ZARCO,,38.705646515,-9.2051687241,,,0,,,0,
1_13118,,RUA GONÇALVES ZARCO,,38.705936432,-9.2051134109,,,0,,,0,
1_7306,,RUA GUILHERMINA SUGGIA,,38.747982025,-9.1324729919,,,0,,,0,
1_11512,,RUA HELENA VAZ DA SILVA,,38.773239136,-9.1530542374,,,0,,,0,
1_11513,,RUA HELENA VAZ DA SILVA,,38.773109436,-9.1532201767,,,0,,,0,
1_4204,,RUA JERÓNIMO OSÓRIO,,38.699363708,-9.2249403,,,0,,,0,
1_4205,,RUA JERÓNIMO OSÓRIO,,38.699832916,-9.2243003845,,,0,,,0,
1_7520,,RUA JOÃO BELO,,38.76348114,-9.1228103638,,,0,,,0,
1_12011,,RUA JOÃO DE BARROS,,38.705280304,-9.1854152679,,,0,,,0,
1_8113,,RUA JOÃO DE DEUS,,38.712680817,-9.1602239609,,,0,,,0,
1_13613,,RUA JOÃO FREITAS BRANCO,,38.752338409,-9.1802072525,,,0,,,0,
1_13614,,RUA JOÃO FREITAS BRANCO,,38.752338409,-9.1799821854,,,0,,,0,
1_3707,,RUA JOÃO PAULO II,,38.747421265,-9.1102724075,,,0,,,0,
1_3710,,RUA JOÃO PAULO II,,38.747375488,-9.1104536057,,,0,,,0,
1_7909,,RUA JOÃO PINTO RIBEIRO,,38.774787903,-9.1017379761,,,0,,,0,
1_7910,,RUA JOÃO PINTO RIBEIRO,,38.774780273,-9.1017713547,,,0,,,0,
1_1223,,RUA JOAQUIM ANTÓNIO DE AGUIAR,,38.725105286,-9.1553049088,,,0,,,0,
1_1224,,RUA JOAQUIM ANTÓNIO DE AGUIAR,,38.724903107,-9.1548480988,,,0,,,0,
1_6607,,RUA JOAQUIM BONIFÁCIO,,38.728351593,-9.1429567337,,,0,,,0,
1_4224,,RUA LATINO COELHO,,38.703170776,-9.2271223068,,,0,,,0,
1_4225,,RUA LATINO COELHO,,38.703205109,-9.227355957,,,0,,,0,
1_7905,,RUA LAUREANO OLIVEIRA,,38.777626038,-9.1019563675,,,0,,,0,
1_7906,,RUA LAUREANO OLIVEIRA,,38.776416779,-9.1027803421,,,0,,,0,
1_9124,,RUA LEITE VASCONCELOS,,38.71761322,-9.1250991821,,,0,,,0,
1_11623,,RUA MALUDA,,38.792255402,-9.1532659531,,,0,,,0,
1_11624,,RUA MALUDA,,38.792007446,-9.1531391144,,,0,,,0,
1_5835,,RUA MANUEL MARQUES,,38.766311646,-9.1541786194,,,0,,,0,
1_9409,,RUA MARIA PIA,,38.710990906,-9.1724157333,,,0,,,0,
1_9405,,RUA MARIA PIA,,38.712593079,-9.173664093,,,0,,,0,
1_9406,,RUA MARIA PIA,,38.71282959,-9.1736307144,,,0,,,0,
1_6115,,RUA MARQUÊS DE FRONTEIRA,,38.72908783,-9.1592082977,,,0,,,0,
1_6116,,RUA MARQUÊS DE FRONTEIRA,,38.729530334,-9.1583518982,,,0,,,0,
1_83104,,RUA MARQUÊS DE OLHÃO,,38.731185913,-9.1115608215,,,0,,,0,
1_13103,,RUA MEM RODRIGUES,,38.707092285,-9.2086086273,,,0,,,0,
1_13104,,RUA MEM RODRIGUES,,38.707363129,-9.208612442,,,0,,,0,
1_8439,,RUA MOCIMBOA PRAIA,,38.758701324,-9.1105422974,,,0,,,0,
1_12611,,RUA MOUZINHO DE ALBUQUERQUE,,38.785491943,-9.1113948822,,,0,,,0,
1_12612,,RUA MOUZINHO DE ALBUQUERQUE,,38.785480499,-9.111497879,,,0,,,0,
1_83102,,RUA NICOLAU TOLENTINO,,38.731018066,-9.1096553802,,,0,,,0,
1_12307,,RUA OLIVEIRA CARMO,,38.776050568,-9.1135425568,,,0,,,0,
1_12308,,RUA OLIVEIRA CARMO,,38.776092529,-9.1138334274,,,0,,,0,
1_2709,,RUA PADRE DOMINGOS SANTOS,,38.732509613,-9.1717977524,,,0,,,0,
1_7915,,RUA PADRE JOAQUIM CORREIA,,38.772911072,-9.1030950546,,,0,,,0,
1_14716,,RUA PEDRO CRUZ,,38.750354767,-9.1207542419,,,0,,,0,
1_13121,,RUA PERO DE ALENQUER,,38.703155518,-9.2111978531,,,0,,,0,
1_13122,,RUA PERO DE ALENQUER,,38.703296661,-9.2114667892,,,0,,,0,
1_9507,,RUA PINTO FERREIRA,,38.697994232,-9.1905536652,,,0,,,0,
1_9508,,RUA PINTO FERREIRA,,38.697807312,-9.1917591095,,,0,,,0,
1_9421,,RUA POSSIDÓNIO DA SILVA,,38.710426331,-9.1713275909,,,0,,,0,
1_9422,,RUA POSSIDÓNIO DA SILVA,,38.71049118,-9.1710643768,,,0,,,0,
1_10211,,RUA PRESIDENTE ARRIAGA,,38.704479218,-9.1641874313,,,0,,,0,
1_10212,,RUA PRESIDENTE ARRIAGA,,38.704612732,-9.1635961533,,,0,,,0,
1_13403,,RUA QTA DO ALMARGEM,,38.701122284,-9.1924333572,,,0,,,0,
1_10826,,RUA REINALDO DOS SANTOS,,38.747272491,-9.1888952255,,,0,,,0,
1_11318,,RUA REINALDO FERREIRA,,38.757568359,-9.1379823685,,,0,,,0,
1_14114,,RUA RIO MINHO,,38.77141571,-9.18653965,,,0,,,0,
1_6814,,RUA RODRIGO DA FONSECA,,38.721199036,-9.1517915726,,,0,,,0,
1_3713,,RUA SALGUEIRO MAIA,,38.748168945,-9.1129455566,,,0,,,0,
1_3714,,RUA SALGUEIRO MAIA,,38.747966766,-9.1129198074,,,0,,,0,
1_8009,,RUA SAMPAIO BRUNO,,38.718334198,-9.1693668365,,,0,,,0,
1_8014,,RUA SAMPAIO BRUNO,,38.718566895,-9.1695489883,,,0,,,0,
1_8015,,RUA SAMPAIO BRUNO,,38.718883514,-9.169678688,,,0,,,0,
1_10013,,RUA SANTANA À LAPA,,38.71005249,-9.1624622345,,,0,,,0,
1_10014,,RUA SANTANA À LAPA,,38.710571289,-9.1616897583,,,0,,,0,
1_10611,,RUA SÃO PEDRO DE ALCÂNTARA,,38.71421814,-9.1439056396,,,0,,,0,
1_7801,,RUA SARGENTO MONTEIRO FERREIRA,,38.771900177,-9.109869957,,,0,,,0,
1_7802,,RUA SARGENTO MONTEIRO FERREIRA,,38.771709442,-9.1099891663,,,0,,,0,
1_10717,,RUA SOUSA LOUREIRO,,38.744720459,-9.1838235855,,,0,,,0,
1_13610,,RUA TOMÁS DA FONSECA,,38.75598526,-9.1708612442,,,0,,,0,
1_13601,,RUA TOMÁS DA FONSECA,,38.755947113,-9.1754550934,,,0,,,0,
1_13609,,RUA TOMÁS DA FONSECA,,38.755760193,-9.1704549789,,,0,,,0,
1_13619,,RUA TOMÁS DE AQUINO,,38.75163269,-9.1675081253,,,0,,,0,
1_13620,,RUA TOMÁS DE AQUINO,,38.752811432,-9.1679153442,,,0,,,0,
1_2126,,RUA VALE DE SANTO ANTÓNIO,,38.717880249,-9.1229190826,,,0,,,0,
1_2335,,RUA VILA FONTES,,38.758346558,-9.1056442261,,,0,,,0,
1_2107,,RUA WASHINGTON,,38.717838287,-9.1207895279,,,0,,,0,
1_2108,,RUA WASHINGTON,,38.718231201,-9.1212368011,,,0,,,0,
1_10701,,S. DOMINGOS BENFICA,,38.745559692,-9.1817598343,,,0,,,0,
1_10702,,S. DOMINGOS DE BENFICA,,38.745704651,-9.1817245483,,,0,,,0,
1_1801,,SALDANHA,,38.73367691,-9.1446371078,,,0,,,0,
1_1802,,SALDANHA,,38.733898163,-9.145070076,,,0,,,0,
1_1812,,SALDANHA,,38.733623505,-9.1450910568,,,0,,,0,
1_1807,,SALDANHA,,38.733917236,-9.1446466446,,,0,,,0,
1_3901,,SANTOS,,38.706169128,-9.1557321548,,,0,,,0,
1_3902,,SANTOS,,38.706142426,-9.1560106277,,,0,,,0,
1_3912,,SANTOS,,38.706794739,-9.1556596756,,,0,,,0,
1_3913,,SANTOS,,38.70664978,-9.1557531357,,,0,,,0,
1_3926,,SANTOS,,38.706516266,-9.1544876099,,,0,,,0,
1_3927,,SANTOS,,38.706386566,-9.1542472839,,,0,,,0,
1_3914,,SANTOS-O-VELHO,,38.706707001,-9.1578588486,,,0,,,0,
1_3915,,SANTOS-O-VELHO,,38.706951141,-9.1581935883,,,0,,,0,
1_3909,,SANTOS-O-VELHO,,38.706695557,-9.1580200195,,,0,,,0,
1_3910,,SANTOS-O-VELHO,,38.706432343,-9.1586332321,,,0,,,0,
1_3911,,SANTOS-O-VELHO,,38.706523895,-9.1579389572,,,0,,,0,
1_10604,,SÃO PEDRO DE ALCÂNTARA,,38.715457916,-9.1450939178,,,0,,,0,
1_1413,,SÃO SEBASTIÃO,,38.734851837,-9.1526622772,,,0,,,0,
1_1414,,SÃO SEBASTIÃO,,38.734790802,-9.1523647308,,,0,,,0,
1_1403,,SÃO SEBASTIÃO,,38.734588623,-9.1540050507,,,0,,,0,
1_1404,,SÃO SEBASTIÃO,,38.733516693,-9.1533889771,,,0,,,0,
1_13809,,SÃO TOMÉ,,38.713424683,-9.130651474,,,0,,,0,
1_9125,,SAPADORES,,38.721458435,-9.1293907166,,,0,,,0,
1_9128,,SAPADORES,,38.721336365,-9.1298265457,,,0,,,0,
1_9129,,SAPADORES,,38.720977783,-9.1302032471,,,0,,,0,
1_9118,,SAPADORES,,38.721313477,-9.1293973923,,,0,,,0,
1_9109,,SAPADORES,,38.721969604,-9.1287469864,,,0,,,0,
1_9110,,SAPADORES,,38.721286774,-9.129196167,,,0,,,0,
1_9105,,SAPADORES,,38.721553802,-9.1297216415,,,0,,,0,
1_9106,,SAPADORES,,38.722297668,-9.1290893555,,,0,,,0,
1_9133,,SAPADORES,,38.721805573,-9.1287612915,,,0,,,0,
1_9132,,SAPADORES,,38.722194672,-9.1287250519,,,0,,,0,
1_13801,,SÉ,,38.709762573,-9.1337690353,,,0,,,0,
1_13802,,SÉ,,38.71005249,-9.134267807,,,0,,,0,
1_2723,,SERAFINA,,38.730892181,-9.1730852127,,,0,,,0,
1_2724,,SERAFINA,,38.732509613,-9.1724042892,,,0,,,0,
1_2722,,SERAFINA - IGREJA,,38.730743408,-9.1733236313,,,0,,,0,
1_14113,,SERRA DA LUZ,,38.772438049,-9.1901979446,,,0,,,0,
1_14103,,SERRA LUZ,,38.772224426,-9.1907377243,,,0,,,0,
1_14104,,SERRA LUZ,,38.771976471,-9.1902036667,,,0,,,0,
1_1603,,SETE RIOS,,38.742576599,-9.1682977676,,,0,,,0,
1_1604,,SETE RIOS,,38.742542267,-9.168598175,,,0,,,0,
1_1622,,SETE RIOS,,38.742191315,-9.1683273315,,,0,,,0,
1_1619,,SETE RIOS,,38.742725372,-9.1679763794,,,0,,,0,
1_1609,,SETE RIOS,,38.742088318,-9.1695814133,,,0,,,0,
1_1610,,SETE RIOS,,38.74200058,-9.1694345474,,,0,,,0,
1_1611,,SETE RIOS,,38.742126465,-9.1687984467,,,0,,,0,
1_1612,,SETE RIOS,,38.742099762,-9.1685523987,,,0,,,0,
1_1606,,SETE RIOS,,38.74187088,-9.1697044373,,,0,,,0,
1_1607,,SETE RIOS,,38.741989136,-9.1697683334,,,0,,,0,
1_1614,,SETE RIOS,,38.741920471,-9.1690826416,,,0,,,0,
1_817,,SOCORRO,,38.716709137,-9.1351518631,,,0,,,0,
1_8441,,SPORT LISBOA E OLIVAIS,,38.761520386,-9.108291626,,,0,,,0,
1_7204,,SR. ROUBADO,,38.785793304,-9.1699151993,,,0,,,0,
1_7211,,SR. ROUBADO,,38.786949158,-9.170416832,,,0,,,0,
1_7220,,SR. ROUBADO (METRO),,38.785831451,-9.1721172333,,,0,,,0,
1_9906,,STA. CATARINA,,38.711044312,-9.147603035,,,0,,,0,
1_4501,,SUL E SUESTE,,38.707756042,-9.1324882507,,,0,,,0,
1_4502,,SUL E SUESTE,,38.70772171,-9.1328840256,,,0,,,0,
1_4505,,SUL E SUESTE,,38.707687378,-9.1326341629,,,0,,,0,
1_4506,,SUL E SUESTE,,38.707839966,-9.1326189041,,,0,,,0,
1_2710,,TARUJO,,38.735176086,-9.1654405594,,,0,,,0,
1_2711,,TARUJO,,38.735088348,-9.1651792526,,,0,,,0,
1_50011,,TELHEIRAS,,38.76058197,-9.1697273254,,,0,,,0,
1_50012,,TELHEIRAS,,38.760471344,-9.1692256927,,,0,,,0,
1_8010,,TERRAMOTOS,,38.721557617,-9.1672019958,,,0,,,0,
1_8011,,TERRAMOTOS,,38.721115112,-9.1674518585,,,0,,,0,
1_4509,,TERREIRO DO PAÇO,,38.708496094,-9.1334323883,,,0,,,0,
1_11618,,TORRINHA,,38.787773132,-9.159075737,,,0,,,0,
1_11620,,TORRINHA,,38.78812027,-9.1586141586,,,0,,,0,
1_2815,,TRAV. SARGENTO ABÍLIO,,38.742408752,-9.2007637024,,,0,,,0,
1_9509,,TRAVESSA ARTUR LAMAS,,38.699729919,-9.1926860809,,,0,,,0,
1_10505,,TRAVESSA DA ÁGUA DA FLOR,,38.713565826,-9.1455059052,,,0,,,0,
1_9403,,TRAVESSA DA HORTA NAVIA,,38.709587097,-9.1719894409,,,0,,,0,
1_10719,,TRAVESSA DE SÃO DOMINGOS,,38.742321014,-9.1818971634,,,0,,,0,
1_8715,,TRIBUNAL DE MONSANTO,,38.732910156,-9.192232132,,,0,,,0,
1_8716,,TRIBUNAL DE MONSANTO,,38.732959747,-9.1919269562,,,0,,,0,
1_9510,,TV. ARTUR LAMAS,,38.69991684,-9.1916599274,,,0,,,0,
1_12015,,TV. FORNOS / R. CRUZEIRO,,38.706245422,-9.1897659302,,,0,,,0,
1_13413,,TV. GIESTAL,,38.701717377,-9.1908302307,,,0,,,0,
1_13414,,TV. GIESTAL,,38.703102112,-9.1910028458,,,0,,,0,
1_9404,,TV. HORTA NAVIA,,38.70892334,-9.1720228195,,,0,,,0,
1_13315,,TV. MEMÓRIA,,38.702568054,-9.2008485794,,,0,,,0,
1_9424,,TV. SEBEIRO,,38.708499908,-9.1759252548,,,0,,,0,
1_9120,,TV. STO. ANTÓNIO,,38.719177246,-9.1279830933,,,0,,,0,
1_12705,,UNIVERSIDADE CATÓLICA,,38.748016357,-9.1654071808,,,0,,,0,
1_12706,,UNIVERSIDADE CATÓLICA,,38.748207092,-9.1654195786,,,0,,,0,
1_10313,,UNIVERSIDADE TÉCNICA (AJUDA),,38.712833405,-9.1958904266,,,0,,,0,
1_79125,,URB. FORTE REAL (SACAVÉM),,38.79417038,-9.1036939621,,,0,,,0,
1_13201,,USF DESCOBERTAS,,38.695827484,-9.2216949463,,,0,,,0,
1_13202,,USF DESCOBERTAS,,38.695064545,-9.2197875977,,,0,,,0,
1_6028,,VALE CASTANHEIRA,,38.781551361,-9.1482486725,,,0,,,0,
1_6015,,VALE CASTANHEIRA,,38.780582428,-9.1482000351,,,0,,,0,
1_6018,,VALE CASTANHEIRA,,38.779865265,-9.1483831406,,,0,,,0,
1_6031,,VALE CASTANHEIRA,,38.781322479,-9.1480607986,,,0,,,0,
1_11705,,VALE ESCURO,,38.728363037,-9.1243467331,,,0,,,0,
1_11706,,VALE ESCURO,,38.728366852,-9.1246728897,,,0,,,0,
1_2222,,VALE FORMOSO,,38.748008728,-9.1031074524,,,0,,,0,
1_2220,,VALE FORMOSO CIMA,,38.750511169,-9.1045188904,,,0,,,0,
1_2214,,VALE FORMOSO DE CIMA,,38.749790192,-9.1032772064,,,0,,,0,
1_2205,,VALE FORMOSO DE CIMA,,38.75087738,-9.104596138,,,0,,,0,
1_2206,,VALE FORMOSO DE CIMA,,38.74949646,-9.1048803329,,,0,,,0,
1_14118,,VALE FORNO,,38.775684357,-9.1783485413,,,0,,,0,
1_14119,,VALE FORNO,,38.775691986,-9.1781053543,,,0,,,0,
1_79120,,VIA ORIENTE,,38.792076111,-9.0993709564,,,0,,,0,
1_79121,,VIA ORIENTE,,38.791641235,-9.0992040634,,,0,,,0,
1_1514,,VIADUTO DA AV. GULBENKIAN,,38.736160278,-9.1606779099,,,0,,,0,
1_1511,,VIADUTO DA AV. GULBENKIAN,,38.736183167,-9.1602907181,,,0,,,0,
1_13603,,VIADUTO DA LUZ,,38.757339478,-9.1774225235,,,0,,,0,
1_13604,,VIADUTO DA LUZ,,38.757171631,-9.1800117493,,,0,,,0,
1_8607,,VIADUTO DUARTE PACHECO,,38.723243713,-9.1666784286,,,0,,,0,
1_8608,,VIADUTO DUARTE PACHECO,,38.723304749,-9.1656322479,,,0,,,0,
1_14801,,VOZ OPERÁRIO,,38.715072632,-9.1287298203,,,0,,,0,
1_14802,,VOZ OPERÁRIO,,38.715034485,-9.1288309097,,,0,,,0,
1_8303,,XABREGAS,,38.727432251,-9.1102924347,,,0,,,0,
1_8304,,XABREGAS,,38.728248596,-9.1096448898,,,0,,,0,
1_8309,,XABREGAS,,38.726566315,-9.1099500656,,,0,,,0,
1_8319,,XABREGAS,,38.726104736,-9.113492012,,,0,,,0,
1_8320,,XABREGAS,,38.725749969,-9.1132383347,,,0,,,0,
1_8310,,XABREGAS / RUA DA MANUTENÇÃO,,38.726303101,-9.1104774475,,,0,,,0,
